{"airports":[{"iata":"ICY","name":"Icy Bay Airport","city":"Icy Bay","state":"Alaska","lat":59.96900177,"lon":-141.662002563},{"iata":"HGZ","name":"Hog River Airport","city":"Hogatza","state":"Alaska","lat":66.2161026,"lon":-155.6690063},{"iata":"BYW","name":"Blakely Island Airport","city":"Blakely Island","state":"Washington","lat":48.5789985657,"lon":-122.825996399},{"iata":"BDF","name":"Rinkenberger Restricted Landing Area","city":"Bradford","state":"Illinois","lat":41.2308998108,"lon":-89.6156997681},{"iata":"BCS","name":"Southern Seaplane Airport","city":"Belle Chasse","state":"Louisiana","lat":29.8661003113,"lon":-90.0222015381},{"iata":"BWL","name":"Earl Henry Airport","city":"Blackwell","state":"Oklahoma","lat":36.7958984375,"lon":-97.3170013428},{"iata":"DUF","name":"Pine Island Airport","city":"Corolla","state":"North Carolina","lat":36.2535018921,"lon":-75.7884979248},{"iata":"FOB","name":"Fort Bragg Airport","city":"Fort Bragg","state":"California","lat":39.4743003845,"lon":-123.79599762},{"iata":"ALX","name":"Thomas C Russell Field","city":"Alexander City","state":"Alabama","lat":32.9146995544,"lon":-85.9629974365},{"iata":"CEX","name":"Chena Hot Springs Airport","city":"Chena Hot Springs","state":"Alaska","lat":65.0518035889,"lon":-146.04699707},{"iata":"HED","name":"Herendeen Bay Airport","city":"Herendeen Bay","state":"Alaska","lat":55.801399231,"lon":-160.899002075},{"iata":"TWE","name":"Taylor Airport","city":"Taylor","state":"Alaska","lat":65.6792984009,"lon":-164.798995972},{"iata":"CDL","name":"Candle 2 Airport","city":"Candle","state":"Alaska","lat":65.907699585,"lon":-161.925994873},{"iata":"BSZ","name":"Bartletts Airport","city":"Egegik","state":"Alaska","lat":58.2162017822,"lon":-157.352005005},{"iata":"BSW","name":"Boswell Bay Airport","city":"Boswell Bay","state":"Alaska","lat":60.4230995178,"lon":-146.145996094},{"iata":"AMK","name":"Animas Air Park","city":"Durango","state":"Colorado","lat":37.2032012939,"lon":-107.869003296},{"iata":"BDX","name":"Broadus Airport","city":"Broadus","state":"Montana","lat":45.47249985,"lon":-105.4540024},{"iata":"FID","name":"Elizabeth Field","city":"Fishers Island","state":"New York","lat":41.2513008118,"lon":-72.0316009521},{"iata":"GCW","name":"Grand Canyon West Airport","city":"Peach Springs","state":"Arizona","lat":35.990398407,"lon":-113.816001892},{"iata":"RKC","name":"Montague-Yreka Rohrer Field","city":"Montague","state":"California","lat":41.7304000854,"lon":-122.54599762},{"iata":"GNF","name":"Gansner Field","city":"Quincy","state":"California","lat":39.943901062,"lon":-120.944999695},{"iata":"GTP","name":"Grants Pass Airport","city":"Grants Pass","state":"Oregon","lat":42.5101013184,"lon":-123.388000488},{"iata":"GCD","name":"Grand Coulee Dam Airport","city":"Electric City","state":"Washington","lat":47.922000885,"lon":-119.083000183},{"iata":"FPY","name":"Perry Foley Airport","city":"Perry","state":"Florida","lat":30.0692997,"lon":-83.58059692},{"iata":"FMU","name":"Florence Municipal Airport","city":"Florence","state":"Oregon","lat":43.98279953,"lon":-124.111000061},{"iata":"ATE","name":"Antlers Municipal Airport","city":"Antlers","state":"Oklahoma","lat":34.1926002502,"lon":-95.6499023438},{"iata":"AAF","name":"Apalachicola Regional Airport","city":"Apalachicola","state":"Florida","lat":29.72750092,"lon":-85.02749634},{"iata":"ABE","name":"Lehigh Valley International Airport","city":"Allentown","state":"Pennsylvania","lat":40.6520996094,"lon":-75.4408035278},{"iata":"ABI","name":"Abilene Regional Airport","city":"Abilene","state":"Texas","lat":32.4113006592,"lon":-99.6819000244},{"iata":"ABQ","name":"Albuquerque International Sunport Airport","city":"Albuquerque","state":"New Mexico","lat":35.0401992798,"lon":-106.6090011597},{"iata":"ABR","name":"Aberdeen Regional Airport","city":"Aberdeen","state":"South Dakota","lat":45.4491004944,"lon":-98.4217987061},{"iata":"ABY","name":"Southwest Georgia Regional Airport","city":"Albany","state":"Georgia","lat":31.5354995728,"lon":-84.1945037842},{"iata":"ACB","name":"Antrim County Airport","city":"Bellaire","state":"Michigan","lat":44.9886016846,"lon":-85.1984024048},{"iata":"ACK","name":"Nantucket Memorial Airport","city":"Nantucket","state":"Massachusetts","lat":41.25310135,"lon":-70.06020355},{"iata":"ACT","name":"Waco Regional Airport","city":"Waco","state":"Texas","lat":31.6112995148,"lon":-97.2304992676},{"iata":"ACV","name":"Arcata Airport","city":"Arcata/Eureka","state":"California","lat":40.978099823,"lon":-124.1090011597},{"iata":"ACY","name":"Atlantic City International Airport","city":"Atlantic City","state":"New Jersey","lat":39.4575996399,"lon":-74.5772018433},{"iata":"ADG","name":"Lenawee County Airport","city":"Adrian","state":"Michigan","lat":41.8676986694,"lon":-84.0773010254},{"iata":"ADT","name":"Ada Municipal Airport","city":"Ada","state":"Oklahoma","lat":34.8042984009,"lon":-96.6713027954},{"iata":"ADM","name":"Ardmore Municipal Airport","city":"Ardmore","state":"Oklahoma","lat":34.30301,"lon":-97.0196342},{"iata":"ADS","name":"Addison Airport","city":"Dallas","state":"Texas","lat":32.9686012268,"lon":-96.8364028931},{"iata":"ADW","name":"Andrews Air Force Base","city":"Camp Springs","state":"Maryland","lat":38.810798645,"lon":-76.8669967651},{"iata":"AEL","name":"Albert Lea Municipal Airport","city":"Albert Lea","state":"Minnesota","lat":43.68149948,"lon":-93.36720276},{"iata":"AEX","name":"Alexandria International Airport","city":"Alexandria","state":"Louisiana","lat":31.3274002075,"lon":-92.5497970581},{"iata":"AFF","name":"USAF Academy Airfield","city":"Colorado Springs","state":"Colorado","lat":38.96969986,"lon":-104.8130035},{"iata":"WSG","name":"Washington County Airport","city":"Washington","state":"Pennsylvania","lat":40.1365013123,"lon":-80.2901992798},{"iata":"AFN","name":"Jaffrey Airport Silver Ranch Airport","city":"Jaffrey","state":"New Hampshire","lat":42.8050994873,"lon":-72.0029983521},{"iata":"AFO","name":"Afton Municipal Airport","city":"Afton","state":"Wyoming","lat":42.7112007141,"lon":-110.942001343},{"iata":"AFW","name":"Fort Worth Alliance Airport","city":"Fort Worth","state":"Texas","lat":32.9875984192,"lon":-97.3188018799},{"iata":"AGC","name":"Allegheny County Airport","city":"Pittsburgh","state":"Pennsylvania","lat":40.3544006348,"lon":-79.9301986694},{"iata":"AGO","name":"Magnolia Municipal Airport","city":"Magnolia","state":"Arkansas","lat":33.22800064,"lon":-93.21700287},{"iata":"AGS","name":"Augusta Regional At Bush Field","city":"Augusta","state":"Georgia","lat":33.3698997498,"lon":-81.9645004272},{"iata":"AHC","name":"Amedee Army Air Field","city":"Herlong","state":"California","lat":40.26620102,"lon":-120.1529999},{"iata":"AHH","name":"Amery Municipal Airport","city":"Amery","state":"Wisconsin","lat":45.2811012268,"lon":-92.3753967285},{"iata":"AHN","name":"Athens Ben Epps Airport","city":"Athens","state":"Georgia","lat":33.948600769,"lon":-83.3263015747},{"iata":"AIA","name":"Alliance Municipal Airport","city":"Alliance","state":"Nebraska","lat":42.0531997681,"lon":-102.804000854},{"iata":"AID","name":"Anderson Municipal Darlington Field","city":"Anderson","state":"Indiana","lat":40.1086006165,"lon":-85.6129989624},{"iata":"AIK","name":"Aiken Municipal Airport","city":"Aiken","state":"South Carolina","lat":33.6493988037,"lon":-81.6849975586},{"iata":"AIO","name":"Atlantic Municipal Airport","city":"Atlantic","state":"Iowa","lat":41.40729904,"lon":-95.04689789},{"iata":"AIV","name":"George Downer Airport","city":"Aliceville","state":"Alabama","lat":33.1064987183,"lon":-88.1977996826},{"iata":"AIZ","name":"Lee C Fine Memorial Airport","city":"Kaiser Lake Ozark","state":"Missouri","lat":38.0960006714,"lon":-92.5494995117},{"iata":"AKO","name":"Colorado Plains Regional Airport","city":"Akron","state":"Colorado","lat":40.1755981445,"lon":-103.222000122},{"iata":"AKC","name":"Akron Fulton International Airport","city":"Akron","state":"Ohio","lat":41.0374984741,"lon":-81.4669036865},{"iata":"ALB","name":"Albany International Airport","city":"Albany","state":"New York","lat":42.748298645,"lon":-73.8016967773},{"iata":"ALI","name":"Alice International Airport","city":"Alice","state":"Texas","lat":27.7409000397,"lon":-98.0269012451},{"iata":"ALM","name":"Alamogordo White Sands Regional Airport","city":"Alamogordo","state":"New Mexico","lat":32.8399009705,"lon":-105.9909973145},{"iata":"ALN","name":"St Louis Regional Airport","city":"Alton/St Louis","state":"Illinois","lat":38.8903007507,"lon":-90.0459976196},{"iata":"ALO","name":"Waterloo Regional Airport","city":"Waterloo","state":"Iowa","lat":42.5570983887,"lon":-92.4002990723},{"iata":"ALS","name":"San Luis Valley Regional Bergman Field","city":"Alamosa","state":"Colorado","lat":37.4348983765,"lon":-105.866996765},{"iata":"ALW","name":"Walla Walla Regional Airport","city":"Walla Walla","state":"Washington","lat":46.09489822,"lon":-118.288002},{"iata":"AMA","name":"Rick Husband Amarillo International Airport","city":"Amarillo","state":"Texas","lat":35.2193984985,"lon":-101.7060012817},{"iata":"AMN","name":"RPD Airport","city":"Alma","state":"Michigan","lat":43.322101593,"lon":-84.68800354},{"iata":"AMW","name":"Ames Municipal Airport","city":"Ames","state":"Iowa","lat":41.99200058,"lon":-93.62180328},{"iata":"ANB","name":"Anniston Metropolitan Airport","city":"Anniston","state":"Alabama","lat":33.58819962,"lon":-85.85810089},{"iata":"AND","name":"Anderson Regional Airport","city":"Anderson","state":"South Carolina","lat":34.4945983887,"lon":-82.7093963623},{"iata":"ANP","name":"Lee Airport","city":"Annapolis","state":"Maryland","lat":38.9429016113,"lon":-76.568397522},{"iata":"ANQ","name":"Tri State Steuben County Airport","city":"Angola","state":"Indiana","lat":41.6397018433,"lon":-85.0835037231},{"iata":"ANW","name":"Ainsworth Municipal Airport","city":"Ainsworth","state":"Nebraska","lat":42.5792007446,"lon":-99.9929962158},{"iata":"ANY","name":"Anthony Municipal Airport","city":"Anthony","state":"Kansas","lat":37.1585006714,"lon":-98.0795974731},{"iata":"AOH","name":"Lima Allen County Airport","city":"Lima","state":"Ohio","lat":40.7069015503,"lon":-84.0267028809},{"iata":"AOO","name":"Altoona Blair County Airport","city":"Altoona","state":"Pennsylvania","lat":40.29639816,"lon":-78.31999969},{"iata":"APA","name":"Centennial Airport","city":"Denver","state":"Colorado","lat":39.57009888,"lon":-104.848999},{"iata":"APC","name":"Napa County Airport","city":"Napa","state":"California","lat":38.2131996155,"lon":-122.28099823},{"iata":"APF","name":"Naples Municipal Airport","city":"Naples","state":"Florida","lat":26.1525993347,"lon":-81.7752990723},{"iata":"APG","name":"Phillips Army Air Field","city":"Aberdeen Proving Grounds(Aberdeen)","state":"Maryland","lat":39.46620178,"lon":-76.16880035},{"iata":"APH","name":"A P Hill Aaf (Fort A P Hill) Airport","city":"Fort A. P. Hill","state":"Virginia","lat":38.06890106,"lon":-77.31829834},{"iata":"APN","name":"Alpena County Regional Airport","city":"Alpena","state":"Michigan","lat":45.0780983,"lon":-83.56030273},{"iata":"APT","name":"Marion County Brown Field","city":"Jasper","state":"Tennessee","lat":35.0606994629,"lon":-85.5852966309},{"iata":"APV","name":"Apple Valley Airport","city":"Apple Valley","state":"California","lat":34.5752983093,"lon":-117.185997009},{"iata":"ARA","name":"Acadiana Regional Airport","city":"New Iberia","state":"Louisiana","lat":30.0377998352,"lon":-91.8839035034},{"iata":"ARB","name":"Ann Arbor Municipal Airport","city":"Ann Arbor","state":"Michigan","lat":42.2229995728,"lon":-83.7455978394},{"iata":"ARG","name":"Walnut Ridge Regional Airport","city":"Walnut Ridge","state":"Arkansas","lat":36.1246667,"lon":-90.9251111},{"iata":"AUZ","name":"Aurora Municipal Airport","city":"Chicago/Aurora","state":"Illinois","lat":41.771900177,"lon":-88.4757003784},{"iata":"ART","name":"Watertown International Airport","city":"Watertown","state":"New York","lat":43.9919013977,"lon":-76.021697998},{"iata":"ARV","name":"Lakeland-Noble F. Lee Memorial field","city":"Minocqua-Woodruff","state":"Wisconsin","lat":45.92789841,"lon":-89.73090363},{"iata":"BFT","name":"Beaufort County Airport","city":"Beaufort","state":"South Carolina","lat":32.4122009277,"lon":-80.6343994141},{"iata":"ASE","name":"Aspen-Pitkin Co/Sardy Field","city":"Aspen","state":"Colorado","lat":39.22320175,"lon":-106.8690033},{"iata":"ASH","name":"Boire Field","city":"Nashua","state":"New Hampshire","lat":42.7817001343,"lon":-71.5148010254},{"iata":"ASL","name":"Harrison County Airport","city":"Marshall","state":"Texas","lat":32.5205001831,"lon":-94.307800293},{"iata":"ASN","name":"Talladega Municipal Airport","city":"Talladega","state":"Alabama","lat":33.5699005127,"lon":-86.0509033203},{"iata":"AST","name":"Astoria Regional Airport","city":"Astoria","state":"Oregon","lat":46.158000946,"lon":-123.878997803},{"iata":"ASX","name":"John F Kennedy Memorial Airport","city":"Ashland","state":"Wisconsin","lat":46.54850006,"lon":-90.91899872},{"iata":"ASY","name":"Ashley Municipal Airport","city":"Ashley","state":"North Dakota","lat":46.0238990784,"lon":-99.3526000977},{"iata":"ATL","name":"Hartsfield Jackson Atlanta International Airport","city":"Atlanta","state":"Georgia","lat":33.6366996765,"lon":-84.4281005859},{"iata":"ATS","name":"Artesia Municipal Airport","city":"Artesia","state":"New Mexico","lat":32.8525009155,"lon":-104.468002319},{"iata":"ATW","name":"Outagamie County Regional Airport","city":"Appleton","state":"Wisconsin","lat":44.2580986023,"lon":-88.5190963745},{"iata":"ATY","name":"Watertown Regional Airport","city":"Watertown","state":"South Dakota","lat":44.91400146,"lon":-97.15470123},{"iata":"AUG","name":"Augusta State Airport","city":"Augusta","state":"Maine","lat":44.3205986023,"lon":-69.7973022461},{"iata":"AUM","name":"Austin Municipal Airport","city":"Austin","state":"Minnesota","lat":43.66500092,"lon":-92.93340302},{"iata":"AUN","name":"Auburn Municipal Airport","city":"Auburn","state":"California","lat":38.95479965,"lon":-121.0820007},{"iata":"AUO","name":"Auburn Opelika Robert G. Pitts Airport","city":"Auburn","state":"Alabama","lat":32.61510086,"lon":-85.43399811},{"iata":"AUS","name":"Austin Bergstrom International Airport","city":"Austin","state":"Texas","lat":30.1944999695,"lon":-97.6698989868},{"iata":"AUW","name":"Wausau Downtown Airport","city":"Wausau","state":"Wisconsin","lat":44.9262008667,"lon":-89.6266021729},{"iata":"AVL","name":"Asheville Regional Airport","city":"Asheville","state":"North Carolina","lat":35.4361991882,"lon":-82.5418014526},{"iata":"AVO","name":"Avon Park Executive Airport","city":"Avon Park","state":"Florida","lat":27.59119987,"lon":-81.52780151},{"iata":"AVP","name":"Wilkes Barre Scranton International Airport","city":"Wilkes-Barre/Scranton","state":"Pennsylvania","lat":41.3385009766,"lon":-75.7233963013},{"iata":"AVW","name":"Marana Regional Airport","city":"Tucson","state":"Arizona","lat":32.4095993042,"lon":-111.218002319},{"iata":"AWM","name":"West Memphis Municipal Airport","city":"West Memphis","state":"Arkansas","lat":35.1351013184,"lon":-90.2343978882},{"iata":"AXG","name":"Algona Municipal Airport","city":"Algona","state":"Iowa","lat":43.0778999329,"lon":-94.2720031738},{"iata":"AXN","name":"Chandler Field","city":"Alexandria","state":"Minnesota","lat":45.8662986755,"lon":-95.3946990967},{"iata":"AXS","name":"Altus Quartz Mountain Regional Airport","city":"Altus","state":"Oklahoma","lat":34.6963996887,"lon":-99.3403015137},{"iata":"AXV","name":"Neil Armstrong Airport","city":"Wapakoneta","state":"Ohio","lat":40.49340057,"lon":-84.29889679},{"iata":"AXX","name":"Angel Fire Airport","city":"Angel Fire","state":"New Mexico","lat":36.422000885,"lon":-105.290000916},{"iata":"AYS","name":"Waycross Ware County Airport","city":"Waycross","state":"Georgia","lat":31.2490997314,"lon":-82.3955001831},{"iata":"AZO","name":"Kalamazoo Battle Creek International Airport","city":"Kalamazoo","state":"Michigan","lat":42.2349014282,"lon":-85.5521011353},{"iata":"BAB","name":"Beale Air Force Base","city":"Marysville","state":"California","lat":39.136100769,"lon":-121.43699646},{"iata":"BAD","name":"Barksdale Air Force Base","city":"Bossier City","state":"Louisiana","lat":32.5018005371,"lon":-93.6626968384},{"iata":"BAF","name":"Barnes Municipal Airport","city":"Westfield/Springfield","state":"Massachusetts","lat":42.1577987671,"lon":-72.7155990601},{"iata":"BBB","name":"Benson Municipal Airport","city":"Benson","state":"Minnesota","lat":45.3319015503,"lon":-95.6505966187},{"iata":"BBD","name":"Curtis Field","city":"Brady","state":"Texas","lat":31.1793003082,"lon":-99.3238983154},{"iata":"BKG","name":"Branson Airport","city":"Branson","state":"Missouri","lat":36.532082,"lon":-93.200544},{"iata":"BTN","name":"Marlboro County Jetport H.E. Avent Field","city":"Bennettsville","state":"South Carolina","lat":34.62170029,"lon":-79.73439789},{"iata":"BBW","name":"Broken Bow Municipal Airport","city":"Broken Bow","state":"Nebraska","lat":41.4365005493,"lon":-99.6421966553},{"iata":"BCB","name":"Virginia Tech Montgomery Executive Airport","city":"Blacksburg","state":"Virginia","lat":37.2075996399,"lon":-80.4077987671},{"iata":"BCE","name":"Bryce Canyon Airport","city":"Bryce Canyon","state":"Utah","lat":37.706401825,"lon":-112.144996643},{"iata":"BCT","name":"Boca Raton Airport","city":"Boca Raton","state":"Florida","lat":26.3784999847,"lon":-80.1076965332},{"iata":"BDE","name":"Baudette International Airport","city":"Baudette","state":"Minnesota","lat":48.7284011841,"lon":-94.612197876},{"iata":"BDL","name":"Bradley International Airport","city":"Hartford","state":"Connecticut","lat":41.9388999939,"lon":-72.6831970215},{"iata":"BDR","name":"Igor I Sikorsky Memorial Airport","city":"Bridgeport","state":"Connecticut","lat":41.1635017395,"lon":-73.1261978149},{"iata":"BEC","name":"Beech Factory Airport","city":"Wichita","state":"Kansas","lat":37.6944999695,"lon":-97.2149963379},{"iata":"BED","name":"Laurence G Hanscom Field","city":"Bedford","state":"Massachusetts","lat":42.47000122,"lon":-71.28900146},{"iata":"BEH","name":"Southwest Michigan Regional Airport","city":"Benton Harbor","state":"Michigan","lat":42.1286010742,"lon":-86.4284973145},{"iata":"BFD","name":"Bradford Regional Airport","city":"Bradford","state":"Pennsylvania","lat":41.8031005859,"lon":-78.6400985718},{"iata":"BFF","name":"Western Neb. Rgnl/William B. Heilig Airport","city":"Scottsbluff","state":"Nebraska","lat":41.87400055,"lon":-103.5960007},{"iata":"BFI","name":"Boeing Field King County International Airport","city":"Seattle","state":"Washington","lat":47.5299987793,"lon":-122.3020019531},{"iata":"BFL","name":"Meadows Field","city":"Bakersfield","state":"California","lat":35.43360138,"lon":-119.0569992},{"iata":"BFM","name":"Mobile Downtown Airport","city":"Mobile","state":"Alabama","lat":30.6268005371,"lon":-88.0680999756},{"iata":"BFR","name":"Virgil I Grissom Municipal Airport","city":"Bedford","state":"Indiana","lat":38.84000015,"lon":-86.44539642},{"iata":"BGD","name":"Hutchinson County Airport","city":"Borger","state":"Texas","lat":35.7009010315,"lon":-101.393997192},{"iata":"BGE","name":"Decatur County Industrial Air Park","city":"Bainbridge","state":"Georgia","lat":30.9715004,"lon":-84.63739777},{"iata":"BGM","name":"Greater Binghamton/Edwin A Link field","city":"Binghamton","state":"New York","lat":42.20869827,"lon":-75.97979736},{"iata":"BGR","name":"Bangor International Airport","city":"Bangor","state":"Maine","lat":44.8073997498,"lon":-68.8281021118},{"iata":"BHB","name":"Hancock County-Bar Harbor Airport","city":"Bar Harbor","state":"Maine","lat":44.45000076,"lon":-68.3615036},{"iata":"BHM","name":"Birmingham-Shuttlesworth International Airport","city":"Birmingham","state":"Alabama","lat":33.56290054,"lon":-86.75350189},{"iata":"BID","name":"Block Island State Airport","city":"Block Island","state":"Rhode Island","lat":41.1680984497,"lon":-71.577796936},{"iata":"BIE","name":"Beatrice Municipal Airport","city":"Beatrice","state":"Nebraska","lat":40.3013000488,"lon":-96.7540969849},{"iata":"BIF","name":"Biggs Army Air Field (Fort Bliss)","city":"Fort Bliss/El Paso","state":"Texas","lat":31.84950066,"lon":-106.3799973},{"iata":"BIH","name":"Eastern Sierra Regional Airport","city":"Bishop","state":"California","lat":37.3731002808,"lon":-118.363998413},{"iata":"BIL","name":"Billings Logan International Airport","city":"Billings","state":"Montana","lat":45.8077011108,"lon":-108.5429992676},{"iata":"BIS","name":"Bismarck Municipal Airport","city":"Bismarck","state":"North Dakota","lat":46.7727012634,"lon":-100.7460021973},{"iata":"BIX","name":"Keesler Air Force Base","city":"Biloxi","state":"Mississippi","lat":30.4104003906,"lon":-88.9244003296},{"iata":"BJC","name":"Rocky Mountain Metropolitan Airport","city":"Denver","state":"Colorado","lat":39.90879822,"lon":-105.1169968},{"iata":"BKD","name":"Stephens County Airport","city":"Breckenridge","state":"Texas","lat":32.71900177,"lon":-98.8909988403},{"iata":"BKE","name":"Baker City Municipal Airport","city":"Baker City","state":"Oregon","lat":44.8372993469,"lon":-117.808998108},{"iata":"BFK","name":"Buckley Air Force Base","city":"Aurora","state":"Colorado","lat":39.7016983032,"lon":-104.751998901},{"iata":"BKL","name":"Burke Lakefront Airport","city":"Cleveland","state":"Ohio","lat":41.5175018311,"lon":-81.6832962036},{"iata":"BKT","name":"Allen C Perkinson Blackstone Army Air Field","city":"Blackstone","state":"Virginia","lat":37.0741996765,"lon":-77.9574966431},{"iata":"BKW","name":"Raleigh County Memorial Airport","city":"Beckley","state":"West Virginia","lat":37.7873001099,"lon":-81.1241989136},{"iata":"BKX","name":"Brookings Regional Airport","city":"Brookings","state":"South Dakota","lat":44.3047981262,"lon":-96.8169021606},{"iata":"BLF","name":"Mercer County Airport","city":"Bluefield","state":"Illinois","lat":37.2957992554,"lon":-81.2077026367},{"iata":"BLH","name":"Blythe Airport","city":"Blythe","state":"California","lat":33.6192016602,"lon":-114.717002869},{"iata":"BLI","name":"Bellingham International Airport","city":"Bellingham","state":"Washington","lat":48.7928009033,"lon":-122.5380020142},{"iata":"BLU","name":"Blue Canyon Nyack Airport","city":"Emigrant Gap","state":"California","lat":39.2750015259,"lon":-120.709999084},{"iata":"BLV","name":"Scott AFB/Midamerica Airport","city":"Belleville","state":"Illinois","lat":38.54520035,"lon":-89.83519745},{"iata":"BMC","name":"Brigham City Airport","city":"Brigham City","state":"Utah","lat":41.5523986816,"lon":-112.06199646},{"iata":"BMG","name":"Monroe County Airport","city":"Bloomington","state":"Alabama","lat":39.1459999084,"lon":-86.6166992188},{"iata":"BMI","name":"Central Illinois Regional Airport at Bloomington-Normal","city":"Bloomington-Normal","state":"Illinois","lat":40.47710037,"lon":-88.91590118},{"iata":"BML","name":"Berlin Regional Airport","city":"Berlin","state":"New Hampshire","lat":44.57540131,"lon":-71.17590332},{"iata":"BMT","name":"Beaumont Municipal Airport","city":"Beaumont","state":"Texas","lat":30.0706996918,"lon":-94.2157974243},{"iata":"BNA","name":"Nashville International Airport","city":"Nashville","state":"Tennessee","lat":36.1245002747,"lon":-86.6781997681},{"iata":"BNG","name":"Banning Municipal Airport","city":"Banning","state":"California","lat":33.9230995178,"lon":-116.850997925},{"iata":"BNL","name":"Barnwell Regional Airport","city":"Barnwell","state":"South Carolina","lat":33.25780106,"lon":-81.38829803},{"iata":"BNO","name":"Burns Municipal Airport","city":"Burns","state":"Oregon","lat":43.5918998718,"lon":-118.955001831},{"iata":"BNW","name":"Boone Municipal Airport","city":"Boone","state":"Iowa","lat":42.0495986938,"lon":-93.8476028442},{"iata":"BOI","name":"Boise Air Terminal/Gowen field","city":"Boise","state":"Idaho","lat":43.56439972,"lon":-116.2229996},{"iata":"BOS","name":"General Edward Lawrence Logan International Airport","city":"Boston","state":"Massachusetts","lat":42.36429977,"lon":-71.00520325},{"iata":"BOW","name":"Bartow Municipal Airport","city":"Bartow","state":"Florida","lat":27.9433994293,"lon":-81.7834014893},{"iata":"BGS","name":"Big Spring Mc Mahon-Wrinkle Airport","city":"Big Spring","state":"Texas","lat":32.21260071,"lon":-101.5220032},{"iata":"BPI","name":"Miley Memorial Field","city":"Big Piney","state":"Wyoming","lat":42.58509827,"lon":-110.1110001},{"iata":"WMH","name":"Ozark Regional Airport","city":"Mountain Home","state":"Arkansas","lat":36.3689002991,"lon":-92.4704971313},{"iata":"BWM","name":"Bowman Municipal Airport","city":"Bowman","state":"North Dakota","lat":46.1870002747,"lon":-103.428001404},{"iata":"BPT","name":"Southeast Texas Regional Airport","city":"Beaumont/Port Arthur","state":"Texas","lat":29.950799942,"lon":-94.0206985474},{"iata":"BQK","name":"Brunswick Golden Isles Airport","city":"Brunswick","state":"Georgia","lat":31.2588005066,"lon":-81.4664993286},{"iata":"BRD","name":"Brainerd Lakes Regional Airport","city":"Brainerd","state":"Minnesota","lat":46.39830017,"lon":-94.13809967},{"iata":"BRL","name":"Southeast Iowa Regional Airport","city":"Burlington","state":"Iowa","lat":40.7831993103,"lon":-91.12550354},{"iata":"BRO","name":"Brownsville South Padre Island International Airport","city":"Brownsville","state":"Texas","lat":25.9067993164,"lon":-97.4259033203},{"iata":"BRY","name":"Samuels Field","city":"Bardstown","state":"Kentucky","lat":37.8143005371,"lon":-85.4996032715},{"iata":"BTF","name":"Skypark Airport","city":"Bountiful","state":"Utah","lat":40.8694000244,"lon":-111.927001953},{"iata":"BTL","name":"W K Kellogg Airport","city":"Battle Creek","state":"Michigan","lat":42.3073005676,"lon":-85.2515029907},{"iata":"BTM","name":"Bert Mooney Airport","city":"Butte","state":"Montana","lat":45.9547996521,"lon":-112.4970016479},{"iata":"BTR","name":"Baton Rouge Metropolitan Ryan Field","city":"Baton Rouge","state":"Louisiana","lat":30.53319931,"lon":-91.14959717},{"iata":"BTV","name":"Burlington International Airport","city":"Burlington","state":"Vermont","lat":44.4719009399,"lon":-73.1532974243},{"iata":"BTY","name":"Beatty Airport","city":"Beatty","state":"Nevada","lat":36.8610992432,"lon":-116.787002563},{"iata":"BUB","name":"Cram Field","city":"Burwell","state":"Nebraska","lat":41.7766990662,"lon":-99.1496963501},{"iata":"BUF","name":"Buffalo Niagara International Airport","city":"Buffalo","state":"New York","lat":42.94049835,"lon":-78.73220062},{"iata":"BUM","name":"Butler Memorial Airport","city":"Butler","state":"Missouri","lat":38.2897987366,"lon":-94.3401031494},{"iata":"BUR","name":"Bob Hope Airport","city":"Burbank","state":"California","lat":34.2006988525,"lon":-118.3590011597},{"iata":"BFP","name":"Beaver County Airport","city":"Beaver Falls","state":"Pennsylvania","lat":40.7724990845,"lon":-80.3914031982},{"iata":"BVO","name":"Bartlesville Municipal Airport","city":"Bartlesville","state":"Oklahoma","lat":36.76250076,"lon":-96.01119995},{"iata":"BLD","name":"Boulder City Municipal Airport","city":"Boulder City","state":"Nevada","lat":35.9474983215,"lon":-114.861000061},{"iata":"BVX","name":"Batesville Regional Airport","city":"Batesville","state":"Arkansas","lat":35.7262001,"lon":-91.64730072},{"iata":"BVY","name":"Beverly Municipal Airport","city":"Beverly","state":"Massachusetts","lat":42.5842018127,"lon":-70.9164962769},{"iata":"BWC","name":"Brawley Municipal Airport","city":"Brawley","state":"California","lat":32.99290085,"lon":-115.5169983},{"iata":"BWD","name":"Brownwood Regional Airport","city":"Brownwood","state":"Texas","lat":31.7936000824,"lon":-98.9564971924},{"iata":"BWG","name":"Bowling Green Warren County Regional Airport","city":"Bowling Green","state":"Kentucky","lat":36.9645004272,"lon":-86.4197006226},{"iata":"BWI","name":"Baltimore/Washington International Thurgood Marshal Airport","city":"Baltimore","state":"Maryland","lat":39.17539978,"lon":-76.66829681},{"iata":"WAH","name":"Harry Stern Airport","city":"Wahpeton","state":"North Dakota","lat":46.2440986633,"lon":-96.6073989868},{"iata":"BXA","name":"George R Carr Memorial Air Field","city":"Bogalusa","state":"Louisiana","lat":30.8136997223,"lon":-89.8649978638},{"iata":"BXK","name":"Buckeye Municipal Airport","city":"Buckeye","state":"Arizona","lat":33.42039871,"lon":-112.685997},{"iata":"BYS","name":"Bicycle Lake Army Air Field","city":"Fort Irwin/Barstow","state":"California","lat":35.2804985046,"lon":-116.629997253},{"iata":"BBC","name":"Bay City Municipal Airport","city":"Bay City","state":"Texas","lat":28.9733009338,"lon":-95.8635025024},{"iata":"BZN","name":"Gallatin Field","city":"Bozeman","state":"Montana","lat":45.77750015,"lon":-111.1529999},{"iata":"CAD","name":"Wexford County Airport","city":"Cadillac","state":"Michigan","lat":44.2752990723,"lon":-85.4188995361},{"iata":"CAE","name":"Columbia Metropolitan Airport","city":"Columbia","state":"South Carolina","lat":33.9388008118,"lon":-81.1194992065},{"iata":"CAK","name":"Akron Canton Regional Airport","city":"Akron","state":"Ohio","lat":40.9160995483,"lon":-81.442199707},{"iata":"CAO","name":"Clayton Municipal Airpark","city":"Clayton","state":"New Mexico","lat":36.4462013245,"lon":-103.166999817},{"iata":"CBE","name":"Greater Cumberland Regional Airport","city":"Cumberland","state":"West Virginia","lat":39.615398407,"lon":-78.7609024048},{"iata":"CBF","name":"Council Bluffs Municipal Airport","city":"Council Bluffs","state":"Iowa","lat":41.2592010498,"lon":-95.760597229},{"iata":"CBK","name":"Shalz Field","city":"Colby","state":"Kansas","lat":39.42750168,"lon":-101.0469971},{"iata":"CBM","name":"Columbus Air Force Base","city":"Columbus","state":"Mississippi","lat":33.6437988281,"lon":-88.4438018799},{"iata":"CCB","name":"Cable Airport","city":"Upland","state":"California","lat":34.1115989685,"lon":-117.68800354},{"iata":"CCR","name":"Buchanan Field","city":"Concord","state":"California","lat":37.9897003174,"lon":-122.056999207},{"iata":"CCY","name":"Northeast Iowa Regional Airport","city":"Charles City","state":"Iowa","lat":43.0726013184,"lon":-92.6108016968},{"iata":"LLX","name":"Caledonia County Airport","city":"Lyndonville","state":"Vermont","lat":44.5690994263,"lon":-72.0179977417},{"iata":"CDC","name":"Cedar City Regional Airport","city":"Cedar City","state":"Utah","lat":37.7010002136,"lon":-113.0989990234},{"iata":"CDH","name":"Harrell Field","city":"Camden","state":"Arkansas","lat":33.6227989197,"lon":-92.7633972168},{"iata":"CDK","name":"George T Lewis Airport","city":"Cedar Key","state":"Florida","lat":29.1352567648,"lon":-83.0483901501},{"iata":"CDN","name":"Woodward Field","city":"Camden","state":"New York","lat":34.2835998535,"lon":-80.5649032593},{"iata":"CDR","name":"Chadron Municipal Airport","city":"Chadron","state":"Nebraska","lat":42.837600708,"lon":-103.095001221},{"iata":"CDS","name":"Childress Municipal Airport","city":"Childress","state":"Texas","lat":34.4337997437,"lon":-100.288002014},{"iata":"CDW","name":"Essex County Airport","city":"Caldwell","state":"New Jersey","lat":40.8751983643,"lon":-74.2814025879},{"iata":"CEC","name":"Jack Mc Namara Field Airport","city":"Crescent City","state":"California","lat":41.78020096,"lon":-124.2369995},{"iata":"CEF","name":"Westover ARB/Metropolitan Airport","city":"Springfield/Chicopee","state":"Massachusetts","lat":42.19400024,"lon":-72.53479767},{"iata":"CEZ","name":"Cortez Municipal Airport","city":"Cortez","state":"Colorado","lat":37.3030014038,"lon":-108.627998352},{"iata":"CGI","name":"Cape Girardeau Regional Airport","city":"Cape Girardeau","state":"Missouri","lat":37.2252998352,"lon":-89.5708007813},{"iata":"CHA","name":"Lovell Field","city":"Chattanooga","state":"Tennessee","lat":35.0353012085,"lon":-85.2037963867},{"iata":"CHO","name":"Charlottesville Albemarle Airport","city":"Charlottesville","state":"Virginia","lat":38.1385993958,"lon":-78.4529037476},{"iata":"CHS","name":"Charleston Air Force Base-International Airport","city":"Charleston","state":"South Carolina","lat":32.89860153,"lon":-80.04049683},{"iata":"CID","name":"The Eastern Iowa Airport","city":"Cedar Rapids","state":"Iowa","lat":41.8847007751,"lon":-91.7108001709},{"iata":"CIU","name":"Chippewa County International Airport","city":"Sault Ste Marie","state":"Michigan","lat":46.2508010864,"lon":-84.4723968506},{"iata":"CKB","name":"North Central West Virginia Airport","city":"Clarksburg","state":"West Virginia","lat":39.2966003418,"lon":-80.2281036377},{"iata":"CLE","name":"Cleveland Hopkins International Airport","city":"Cleveland","state":"Ohio","lat":41.4117012024,"lon":-81.8498001099},{"iata":"CLL","name":"Easterwood Field","city":"College Station","state":"Texas","lat":30.58860016,"lon":-96.36380005},{"iata":"CLM","name":"William R Fairchild International Airport","city":"Port Angeles","state":"Washington","lat":48.1202011108,"lon":-123.5},{"iata":"CLT","name":"Charlotte Douglas International Airport","city":"Charlotte","state":"North Carolina","lat":35.2140007019,"lon":-80.9430999756},{"iata":"CMH","name":"Port Columbus International Airport","city":"Columbus","state":"Ohio","lat":39.9980010986,"lon":-82.8918991089},{"iata":"CMI","name":"University of Illinois Willard Airport","city":"Champaign/Urbana","state":"Illinois","lat":40.03919983,"lon":-88.27809906},{"iata":"CMX","name":"Houghton County Memorial Airport","city":"Hancock","state":"Michigan","lat":47.1683998108,"lon":-88.4890975952},{"iata":"CNM","name":"Cavern City Air Terminal","city":"Carlsbad","state":"New Mexico","lat":32.3375015259,"lon":-104.2630004883},{"iata":"COS","name":"City of Colorado Springs Municipal Airport","city":"Colorado Springs","state":"Colorado","lat":38.8058013916,"lon":-104.7009963989},{"iata":"COU","name":"Columbia Regional Airport","city":"Columbia","state":"Missouri","lat":38.8180999756,"lon":-92.2195968628},{"iata":"CPR","name":"Casper-Natrona County International Airport","city":"Casper","state":"Wyoming","lat":42.90800095,"lon":-106.4639969},{"iata":"CRO","name":"Corcoran Airport","city":"Corcoran","state":"California","lat":36.1025009155,"lon":-119.595001221},{"iata":"CRP","name":"Corpus Christi International Airport","city":"Corpus Christi","state":"Texas","lat":27.7703990936,"lon":-97.5011978149},{"iata":"CRW","name":"Yeager Airport","city":"Charleston","state":"West Virginia","lat":38.3731002808,"lon":-81.5932006836},{"iata":"CSG","name":"Columbus Metropolitan Airport","city":"Columbus","state":"Georgia","lat":32.5163002014,"lon":-84.9389038086},{"iata":"CVG","name":"Cincinnati Northern Kentucky International Airport","city":"Hebron","state":"Kentucky","lat":39.0488014221,"lon":-84.6678009033},{"iata":"CVN","name":"Clovis Municipal Airport","city":"Clovis","state":"New Mexico","lat":34.4250984192,"lon":-103.07900238},{"iata":"KIP","name":"Kickapoo Downtown Airport","city":"Wichita Falls","state":"Texas","lat":33.85779953,"lon":-98.49040222},{"iata":"CWF","name":"Chennault International Airport","city":"Lake Charles","state":"Louisiana","lat":30.2105998993,"lon":-93.1432037354},{"iata":"CYS","name":"Cheyenne Regional Jerry Olson Field","city":"Cheyenne","state":"Wyoming","lat":41.15570068,"lon":-104.8119965},{"iata":"DAA","name":"Davison Army Air Field","city":"Fort Belvoir","state":"Virginia","lat":38.7150001526,"lon":-77.1809997559},{"iata":"DAB","name":"Daytona Beach International Airport","city":"Daytona Beach","state":"Florida","lat":29.1798992157,"lon":-81.0580978394},{"iata":"DAG","name":"Barstow Daggett Airport","city":"Daggett","state":"California","lat":34.85369873,"lon":-116.7870026},{"iata":"DAL","name":"Dallas Love Field","city":"Dallas","state":"Texas","lat":32.8470993042,"lon":-96.8517990112},{"iata":"DAN","name":"Danville Regional Airport","city":"Danville","state":"Virginia","lat":36.5728988647,"lon":-79.3360977173},{"iata":"DAY","name":"James M Cox Dayton International Airport","city":"Dayton","state":"Ohio","lat":39.9024009705,"lon":-84.2193984985},{"iata":"DBN","name":"W H 'Bud' Barron Airport","city":"Dublin","state":"Georgia","lat":32.56439972,"lon":-82.98529816},{"iata":"DBQ","name":"Dubuque Regional Airport","city":"Dubuque","state":"Iowa","lat":42.40200043,"lon":-90.70950317},{"iata":"DCA","name":"Ronald Reagan Washington National Airport","city":"Washington","state":"Virginia","lat":38.8521003723,"lon":-77.0376968384},{"iata":"DCU","name":"Pryor Field Regional Airport","city":"Decatur","state":"Alabama","lat":34.6526985168,"lon":-86.9453964233},{"iata":"DDC","name":"Dodge City Regional Airport","city":"Dodge City","state":"Kansas","lat":37.7634010315,"lon":-99.9655990601},{"iata":"DEC","name":"Decatur Airport","city":"Decatur","state":"Illinois","lat":39.8345985413,"lon":-88.8656997681},{"iata":"DEH","name":"Decorah Municipal Airport","city":"Decorah","state":"Iowa","lat":43.27550125,"lon":-91.73940277},{"iata":"DEN","name":"Denver International Airport","city":"Denver","state":"Colorado","lat":39.8616981506,"lon":-104.672996521},{"iata":"DET","name":"Coleman A. Young Municipal Airport","city":"Detroit","state":"Michigan","lat":42.40919876,"lon":-83.00990295},{"iata":"DFI","name":"Defiance Memorial Airport","city":"Defiance","state":"Ohio","lat":41.3375015259,"lon":-84.4288024902},{"iata":"DFW","name":"Dallas Fort Worth International Airport","city":"Dallas-Fort Worth","state":"Texas","lat":32.8968009949,"lon":-97.0380020142},{"iata":"DGL","name":"Douglas Municipal Airport","city":"Douglas","state":"Arizona","lat":31.3425998688,"lon":-109.505996704},{"iata":"DGW","name":"Converse County Airport","city":"Douglas","state":"Wyoming","lat":42.79719925,"lon":-105.3860016},{"iata":"DHN","name":"Dothan Regional Airport","city":"Dothan","state":"Alabama","lat":31.3213005066,"lon":-85.4496002197},{"iata":"DHT","name":"Dalhart Municipal Airport","city":"Dalhart","state":"Texas","lat":36.0225982666,"lon":-102.54699707},{"iata":"DIK","name":"Dickinson Theodore Roosevelt Regional Airport","city":"Dickinson","state":"North Dakota","lat":46.7974014282,"lon":-102.802001953},{"iata":"DLH","name":"Duluth International Airport","city":"Duluth","state":"Minnesota","lat":46.8420982361,"lon":-92.1936035156},{"iata":"DNL","name":"Daniel Field","city":"Augusta","state":"Georgia","lat":33.4664993286,"lon":-82.0393981934},{"iata":"DPA","name":"Dupage Airport","city":"Chicago/West Chicago","state":"Illinois","lat":41.90779877,"lon":-88.24859619},{"iata":"DPG","name":"Michael AAF (Dugway Proving Ground) Airport","city":"Dugway Proving Ground","state":"Utah","lat":40.19940186,"lon":-112.9369965},{"iata":"DRO","name":"Durango La Plata County Airport","city":"Durango","state":"Colorado","lat":37.1515007019,"lon":-107.753997803},{"iata":"DRT","name":"Del Rio International Airport","city":"Del Rio","state":"Texas","lat":29.3742008209,"lon":-100.927001953},{"iata":"DSM","name":"Des Moines International Airport","city":"Des Moines","state":"Iowa","lat":41.5340003967,"lon":-93.6631011963},{"iata":"DSV","name":"Dansville Municipal Airport","city":"Dansville","state":"New York","lat":42.5708999634,"lon":-77.7130966187},{"iata":"DTA","name":"Delta Municipal Airport","city":"Delta","state":"Utah","lat":39.3805999756,"lon":-112.508003235},{"iata":"DTL","name":"Detroit Lakes Airport - Wething Field","city":"Detroit Lakes","state":"Minnesota","lat":46.82519913,"lon":-95.88569641},{"iata":"DTN","name":"Shreveport Downtown Airport","city":"Shreveport","state":"Louisiana","lat":32.5401992798,"lon":-93.7450027466},{"iata":"DSI","name":"Destin Fort Walton Beach Airport","city":"Destin","state":"Florida","lat":30.40010071,"lon":-86.47149658},{"iata":"DTW","name":"Detroit Metropolitan Wayne County Airport","city":"Detroit","state":"Michigan","lat":42.2123985291,"lon":-83.3534011841},{"iata":"DUA","name":"Eaker Field","city":"Durant","state":"Oklahoma","lat":33.94229889,"lon":-96.39450073},{"iata":"DUC","name":"Halliburton Field","city":"Duncan","state":"Oklahoma","lat":34.47090149,"lon":-97.9598999},{"iata":"DUG","name":"Bisbee Douglas International Airport","city":"Douglas Bisbee","state":"Arizona","lat":31.4689998627,"lon":-109.603996277},{"iata":"DUJ","name":"DuBois Regional Airport","city":"Dubois","state":"Pennsylvania","lat":41.17829895,"lon":-78.8986969},{"iata":"DVL","name":"Devils Lake Regional Airport","city":"Devils Lake","state":"North Dakota","lat":48.11420059,"lon":-98.90879822},{"iata":"DVN","name":"Davenport Municipal Airport","city":"Davenport","state":"Iowa","lat":41.61029816,"lon":-90.58830261},{"iata":"DVT","name":"Phoenix Deer Valley Airport","city":"Phoenix","state":"Arizona","lat":33.6883010864,"lon":-112.083000183},{"iata":"DWH","name":"David Wayne Hooks Memorial Airport","city":"Houston","state":"Texas","lat":30.0618000031,"lon":-95.5528030396},{"iata":"DXR","name":"Danbury Municipal Airport","city":"Danbury","state":"Connecticut","lat":41.3714981079,"lon":-73.4822006226},{"iata":"DYL","name":"Doylestown Airport","city":"Doylestown","state":"Pennsylvania","lat":40.3330001831,"lon":-75.1222991943},{"iata":"DYS","name":"Dyess Air Force Base","city":"Abilene","state":"Texas","lat":32.4207992554,"lon":-99.854598999},{"iata":"CCG","name":"Crane County Airport","city":"Crane","state":"Texas","lat":31.4151000977,"lon":-102.362998962},{"iata":"BGQ","name":"Reagan County Airport","city":"Big Lake","state":"Texas","lat":31.1989002228,"lon":-101.472999573},{"iata":"BGT","name":"Bagdad Airport","city":"Bagdad","state":"Arizona","lat":34.5959014893,"lon":-113.1699981689},{"iata":"EAR","name":"Kearney Regional Airport","city":"Kearney","state":"Nebraska","lat":40.72700119,"lon":-99.00679779},{"iata":"EAU","name":"Chippewa Valley Regional Airport","city":"Eau Claire","state":"Wisconsin","lat":44.8657989502,"lon":-91.4842987061},{"iata":"EBS","name":"Webster City Municipal Airport","city":"Webster City","state":"Iowa","lat":42.43659973,"lon":-93.86889648},{"iata":"ECG","name":"Elizabeth City Regional Airport & Coast Guard Air Station","city":"Elizabeth City","state":"North Carolina","lat":36.26060104,"lon":-76.17459869},{"iata":"ECP","name":"Northwest Florida Beaches International Airport","city":"Panama City Beach","state":"Florida","lat":30.3417,"lon":-85.7973},{"iata":"EEN","name":"Dillant Hopkins Airport","city":"Keene","state":"New Hampshire","lat":42.898399353,"lon":-72.2707977295},{"iata":"EFK","name":"Newport State Airport","city":"Newport","state":"Vermont","lat":44.8888015747,"lon":-72.2292022705},{"iata":"EGE","name":"Eagle County Regional Airport","city":"Eagle","state":"Colorado","lat":39.64260101,"lon":-106.9179993},{"iata":"EKO","name":"Elko Regional Airport","city":"Elko","state":"Nevada","lat":40.8249015808,"lon":-115.7919998169},{"iata":"ELD","name":"South Arkansas Regional At Goodwin Field","city":"El Dorado","state":"Arkansas","lat":33.2210006714,"lon":-92.8133010864},{"iata":"ELM","name":"Elmira Corning Regional Airport","city":"Elmira/Corning","state":"New York","lat":42.1599006653,"lon":-76.8916015625},{"iata":"ELP","name":"El Paso International Airport","city":"El Paso","state":"Texas","lat":31.80719948,"lon":-106.3779984},{"iata":"END","name":"Vance Air Force Base","city":"Enid","state":"Oklahoma","lat":36.3391990662,"lon":-97.9164962769},{"iata":"ERI","name":"Erie International Tom Ridge Field","city":"Erie","state":"Pennsylvania","lat":42.0831270134,"lon":-80.1738667488},{"iata":"EUG","name":"Mahlon Sweet Field","city":"Eugene","state":"Oregon","lat":44.1245994568,"lon":-123.2119979858},{"iata":"EVV","name":"Evansville Regional Airport","city":"Evansville","state":"Indiana","lat":38.0369987488,"lon":-87.5324020386},{"iata":"EVW","name":"Evanston-Uinta County Airport-Burns Field","city":"Evanston","state":"Wyoming","lat":41.27479935,"lon":-111.0350037},{"iata":"EWB","name":"New Bedford Regional Airport","city":"New Bedford","state":"Massachusetts","lat":41.6761016846,"lon":-70.9569015503},{"iata":"EWK","name":"Newton City-County Airport","city":"Newton","state":"Kansas","lat":38.0582008362,"lon":-97.2744979858},{"iata":"EWN","name":"Coastal Carolina Regional Airport","city":"New Bern","state":"North Carolina","lat":35.0730018616,"lon":-77.0429000854},{"iata":"EWR","name":"Newark Liberty International Airport","city":"Newark","state":"New Jersey","lat":40.6925010681,"lon":-74.1687011719},{"iata":"EYW","name":"Key West International Airport","city":"Key West","state":"Florida","lat":24.5561008453,"lon":-81.7595977783},{"iata":"FAR","name":"Hector International Airport","city":"Fargo","state":"North Dakota","lat":46.9207000732,"lon":-96.8158035278},{"iata":"FAT","name":"Fresno Yosemite International Airport","city":"Fresno","state":"California","lat":36.7761993408,"lon":-119.7180023193},{"iata":"FAY","name":"Fayetteville Regional Grannis Field","city":"Fayetteville","state":"North Carolina","lat":34.9911994934,"lon":-78.8803024292},{"iata":"FBG","name":"Simmons Army Air Field","city":"Fort Bragg","state":"North Carolina","lat":35.13180161,"lon":-78.93669891},{"iata":"FCS","name":"Butts AAF (Fort Carson) Air Field","city":"Fort Carson","state":"Colorado","lat":38.67839813,"lon":-104.7570038},{"iata":"FHB","name":"Fernandina Beach Municipal Airport","city":"Fernandina Beach","state":"Florida","lat":30.6117992401,"lon":-81.4611968994},{"iata":"FRD","name":"Friday Harbor Airport","city":"Friday Harbor","state":"Washington","lat":48.5219993591,"lon":-123.024002075},{"iata":"FHU","name":"Sierra Vista Municipal Libby Army Air Field","city":"Fort Huachuca Sierra Vista","state":"Arizona","lat":31.5884990692,"lon":-110.34400177},{"iata":"FLG","name":"Flagstaff Pulliam Airport","city":"Flagstaff","state":"Arizona","lat":35.13850021,"lon":-111.6709976},{"iata":"FLL","name":"Fort Lauderdale Hollywood International Airport","city":"Fort Lauderdale","state":"Florida","lat":26.072599411,"lon":-80.1527023315},{"iata":"FLO","name":"Florence Regional Airport","city":"Florence","state":"South Carolina","lat":34.1853981018,"lon":-79.7238998413},{"iata":"FNT","name":"Bishop International Airport","city":"Flint","state":"Michigan","lat":42.9654006958,"lon":-83.743598938},{"iata":"FOD","name":"Fort Dodge Regional Airport","city":"Fort Dodge","state":"Iowa","lat":42.55149841,"lon":-94.19259644},{"iata":"FOE","name":"Forbes Field","city":"Topeka","state":"Kansas","lat":38.9509010315,"lon":-95.6635971069},{"iata":"FIL","name":"Fillmore Municipal Airport","city":"Fillmore","state":"Utah","lat":38.95830154,"lon":-112.362999},{"iata":"FPR","name":"St Lucie County International Airport","city":"Fort Pierce","state":"Florida","lat":27.49510002,"lon":-80.36830139},{"iata":"FRH","name":"French Lick Municipal Airport","city":"French Lick","state":"Indiana","lat":38.5061988831,"lon":-86.6369018555},{"iata":"FRI","name":"Marshall Army Air Field","city":"Fort Riley(Junction City)","state":"Kansas","lat":39.05530167,"lon":-96.76450348},{"iata":"FRM","name":"Fairmont Municipal Airport","city":"Fairmont","state":"Minnesota","lat":43.643901825,"lon":-94.4156036377},{"iata":"FSD","name":"Joe Foss Field Airport","city":"Sioux Falls","state":"South Dakota","lat":43.5820007324,"lon":-96.741897583},{"iata":"FSM","name":"Fort Smith Regional Airport","city":"Fort Smith","state":"Arkansas","lat":35.3366012573,"lon":-94.367401123},{"iata":"FMS","name":"Fort Madison Municipal Airport","city":"Fort Madison","state":"Iowa","lat":40.6593017578,"lon":-91.3267974854},{"iata":"FTW","name":"Fort Worth Meacham International Airport","city":"Fort Worth","state":"Texas","lat":32.8198013306,"lon":-97.3623962402},{"iata":"FUL","name":"Fullerton Municipal Airport","city":"Fullerton","state":"California","lat":33.8720016479,"lon":-117.980003357},{"iata":"FWA","name":"Fort Wayne International Airport","city":"Fort Wayne","state":"Indiana","lat":40.97850037,"lon":-85.19509888},{"iata":"FYV","name":"Drake Field","city":"Fayetteville","state":"Arkansas","lat":36.0051002502,"lon":-94.1700973511},{"iata":"GAB","name":"Gabbs Airport","city":"Gabbs","state":"Nevada","lat":38.9240989685,"lon":-117.958999634},{"iata":"GAG","name":"Gage Airport","city":"Gage","state":"Oklahoma","lat":36.295501709,"lon":-99.7763977051},{"iata":"GBD","name":"Great Bend Municipal Airport","city":"Great Bend","state":"Kansas","lat":38.3442993164,"lon":-98.8591995239},{"iata":"GCK","name":"Garden City Regional Airport","city":"Garden City","state":"Kansas","lat":37.9275016785,"lon":-100.7239990234},{"iata":"GCN","name":"Grand Canyon National Park Airport","city":"Grand Canyon","state":"Arizona","lat":35.9524002075,"lon":-112.1470031738},{"iata":"GDV","name":"Dawson Community Airport","city":"Glendive","state":"Montana","lat":47.13869858,"lon":-104.8069992},{"iata":"GDY","name":"Grundy Municipal Airport","city":"Grundy","state":"Virginia","lat":37.2323989868,"lon":-82.125},{"iata":"GEG","name":"Spokane International Airport","city":"Spokane","state":"Washington","lat":47.6198997498,"lon":-117.533996582},{"iata":"GFK","name":"Grand Forks International Airport","city":"Grand Forks","state":"North Dakota","lat":47.9492988586,"lon":-97.1761016846},{"iata":"GGG","name":"East Texas Regional Airport","city":"Longview","state":"Texas","lat":32.3839988708,"lon":-94.7115020752},{"iata":"GGW","name":"Wokal Field Glasgow International Airport","city":"Glasgow","state":"Montana","lat":48.2125015259,"lon":-106.6149978638},{"iata":"IDH","name":"Idaho County Airport","city":"Grangeville","state":"Idaho","lat":45.94260025,"lon":-116.1230011},{"iata":"GJT","name":"Grand Junction Regional Airport","city":"Grand Junction","state":"Colorado","lat":39.1223983765,"lon":-108.527000427},{"iata":"GLH","name":"Mid Delta Regional Airport","city":"Greenville","state":"Mississippi","lat":33.4828987122,"lon":-90.9856033325},{"iata":"GLS","name":"Scholes International At Galveston Airport","city":"Galveston","state":"Texas","lat":29.2653007507,"lon":-94.8603973389},{"iata":"GNV","name":"Gainesville Regional Airport","city":"Gainesville","state":"Florida","lat":29.6900997162,"lon":-82.2717971802},{"iata":"GON","name":"Groton New London Airport","city":"Groton (New London)","state":"Connecticut","lat":41.3301010132,"lon":-72.0450973511},{"iata":"FCA","name":"Glacier Park International Airport","city":"Kalispell","state":"Montana","lat":48.3105010986,"lon":-114.2559967041},{"iata":"GPT","name":"Gulfport Biloxi International Airport","city":"Gulfport","state":"Mississippi","lat":30.4073009491,"lon":-89.070098877},{"iata":"GRB","name":"Austin Straubel International Airport","city":"Green Bay","state":"Wisconsin","lat":44.4850997925,"lon":-88.1296005249},{"iata":"GRI","name":"Central Nebraska Regional Airport","city":"Grand Island","state":"Nebraska","lat":40.9674987793,"lon":-98.3096008301},{"iata":"GRK","name":"Robert Gray  Army Air Field Airport","city":"Fort Hood/Killeen","state":"Texas","lat":31.067199707,"lon":-97.8289031982},{"iata":"GRR","name":"Gerald R. Ford International Airport","city":"Grand Rapids","state":"Michigan","lat":42.88079834,"lon":-85.52279663},{"iata":"GSO","name":"Piedmont Triad International Airport","city":"Greensboro","state":"North Carolina","lat":36.0978012085,"lon":-79.9373016357},{"iata":"GSP","name":"Greenville Spartanburg International Airport","city":"Greenville","state":"South Carolina","lat":34.8956985474,"lon":-82.2189025879},{"iata":"GTF","name":"Great Falls International Airport","city":"Great Falls","state":"Montana","lat":47.48199844,"lon":-111.3710022},{"iata":"GTR","name":"Golden Triangle Regional Airport","city":"Columbus/W Point/Starkville","state":"Mississippi","lat":33.4502983093,"lon":-88.5914001465},{"iata":"GUP","name":"Gallup Municipal Airport","city":"Gallup","state":"New Mexico","lat":35.511100769,"lon":-108.789001465},{"iata":"GVT","name":"Majors Airport","city":"Greenville","state":"California","lat":33.0677986145,"lon":-96.0652999878},{"iata":"GYY","name":"Gary Chicago International Airport","city":"Gary","state":"Indiana","lat":41.6162986755,"lon":-87.4128036499},{"iata":"HDN","name":"Yampa Valley Airport","city":"Hayden","state":"Colorado","lat":40.48120117,"lon":-107.2180023},{"iata":"HGR","name":"Hagerstown Regional Richard A Henson Field","city":"Hagerstown","state":"Maryland","lat":39.707901,"lon":-77.72949982},{"iata":"HIB","name":"Chisholm Hibbing Airport","city":"Hibbing","state":"Minnesota","lat":47.38660049,"lon":-92.83899689},{"iata":"HKY","name":"Hickory Regional Airport","city":"Hickory","state":"North Carolina","lat":35.74110031,"lon":-81.38950348},{"iata":"HLN","name":"Helena Regional Airport","city":"Helena","state":"Montana","lat":46.6068000793,"lon":-111.983001709},{"iata":"HON","name":"Huron Regional Airport","city":"Huron","state":"South Dakota","lat":44.3852005005,"lon":-98.2285003662},{"iata":"HOT","name":"Memorial Field","city":"Hot Springs","state":"Iowa","lat":34.4780006409,"lon":-93.0961990356},{"iata":"HOU","name":"William P Hobby Airport","city":"Houston","state":"Texas","lat":29.64539909,"lon":-95.27890015},{"iata":"HPN","name":"Westchester County Airport","city":"White Plains","state":"New York","lat":41.0670013428,"lon":-73.7076034546},{"iata":"HRL","name":"Valley International Airport","city":"Harlingen","state":"Texas","lat":26.2285003662,"lon":-97.6544036865},{"iata":"HRO","name":"Boone County Airport","city":"Harrison","state":"Arkansas","lat":36.2615013123,"lon":-93.1547012329},{"iata":"HNC","name":"Billy Mitchell Airport","city":"Hatteras","state":"North Carolina","lat":35.23279953,"lon":-75.6177978516},{"iata":"HSV","name":"Huntsville International Carl T Jones Field","city":"Huntsville","state":"Alabama","lat":34.6371994019,"lon":-86.775100708},{"iata":"HTS","name":"Tri-State/Milton J. Ferguson Field","city":"Huntington","state":"West Virginia","lat":38.36669922,"lon":-82.55799866},{"iata":"HUF","name":"Terre Haute International Hulman Field","city":"Terre Haute","state":"Indiana","lat":39.451499939,"lon":-87.3076019287},{"iata":"HVN","name":"Tweed New Haven Airport","city":"New Haven","state":"Connecticut","lat":41.26369858,"lon":-72.88680267},{"iata":"HVR","name":"Havre City County Airport","city":"Havre","state":"Montana","lat":48.54299927,"lon":-109.762001},{"iata":"HYA","name":"Barnstable Municipal Boardman Polando Field","city":"Hyannis","state":"Massachusetts","lat":41.66930008,"lon":-70.28040314},{"iata":"HYS","name":"Hays Regional Airport","city":"Hays","state":"Kansas","lat":38.84220123,"lon":-99.27320099},{"iata":"IAB","name":"Mc Connell Air Force Base","city":"Wichita","state":"Kansas","lat":37.62189865,"lon":-97.26820374},{"iata":"IAD","name":"Washington Dulles International Airport","city":"Washington","state":"Virginia","lat":38.94449997,"lon":-77.45580292},{"iata":"IAG","name":"Niagara Falls International Airport","city":"Niagara Falls","state":"New York","lat":43.1072998047,"lon":-78.9461975098},{"iata":"IAH","name":"George Bush Intercontinental Houston Airport","city":"Houston","state":"Texas","lat":29.9843997955,"lon":-95.3414001465},{"iata":"ICT","name":"Wichita Mid Continent Airport","city":"Wichita","state":"Kansas","lat":37.6498985291,"lon":-97.4330978394},{"iata":"IDA","name":"Idaho Falls Regional Airport","city":"Idaho Falls","state":"Idaho","lat":43.5145988464,"lon":-112.0709991455},{"iata":"XPR","name":"Pine Ridge Airport","city":"Pine Ridge","state":"South Dakota","lat":43.0224990845,"lon":-102.511001587},{"iata":"IFP","name":"Laughlin Bullhead International Airport","city":"Bullhead City","state":"Arizona","lat":35.15739822,"lon":-114.5599976},{"iata":"IGM","name":"Kingman Airport","city":"Kingman","state":"Arizona","lat":35.2594985962,"lon":-113.93800354},{"iata":"ILG","name":"New Castle Airport","city":"Wilmington","state":"Delaware","lat":39.67869949,"lon":-75.60649872},{"iata":"ILM","name":"Wilmington International Airport","city":"Wilmington","state":"North Carolina","lat":34.2705993652,"lon":-77.9026031494},{"iata":"IMT","name":"Ford Airport","city":"Iron Mountain Kingsford","state":"Michigan","lat":45.8184013367,"lon":-88.1145019531},{"iata":"IND","name":"Indianapolis International Airport","city":"Indianapolis","state":"Indiana","lat":39.717300415,"lon":-86.2944030762},{"iata":"INL","name":"Falls International Airport","city":"International Falls","state":"Minnesota","lat":48.5662002563,"lon":-93.4030990601},{"iata":"INT","name":"Smith Reynolds Airport","city":"Winston Salem","state":"North Carolina","lat":36.1337013245,"lon":-80.2220001221},{"iata":"IPL","name":"Imperial County Airport","city":"Imperial","state":"California","lat":32.8342018127,"lon":-115.57900238},{"iata":"IPT","name":"Williamsport Regional Airport","city":"Williamsport","state":"Pennsylvania","lat":41.2417984009,"lon":-76.9210968018},{"iata":"IRK","name":"Kirksville Regional Airport","city":"Kirksville","state":"Missouri","lat":40.09349823,"lon":-92.5448989868},{"iata":"ISN","name":"Sloulin Field International Airport","city":"Williston","state":"North Dakota","lat":48.177898407,"lon":-103.641998291},{"iata":"ISP","name":"Long Island Mac Arthur Airport","city":"Islip","state":"New York","lat":40.79520035,"lon":-73.10019684},{"iata":"ITH","name":"Ithaca Tompkins Regional Airport","city":"Ithaca","state":"New York","lat":42.4910011292,"lon":-76.4583969116},{"iata":"AZA","name":"Phoenix-Mesa-Gateway Airport","city":"Phoenix","state":"Arizona","lat":33.30780029,"lon":-111.6549988},{"iata":"IYK","name":"Inyokern Airport","city":"Inyokern","state":"California","lat":35.65879822,"lon":-117.8300018},{"iata":"JAC","name":"Jackson Hole Airport","city":"Jackson","state":"Wyoming","lat":43.6072998047,"lon":-110.7379989624},{"iata":"JAN","name":"Jackson Evers International Airport","city":"Jackson","state":"Mississippi","lat":32.3111991882,"lon":-90.0758972168},{"iata":"JAX","name":"Jacksonville International Airport","city":"Jacksonville","state":"Florida","lat":30.4941005707,"lon":-81.6878967285},{"iata":"JBR","name":"Jonesboro Municipal Airport","city":"Jonesboro","state":"Arkansas","lat":35.8316993713,"lon":-90.6464004517},{"iata":"JFK","name":"John F Kennedy International Airport","city":"New York","state":"New York","lat":40.63980103,"lon":-73.77890015},{"iata":"JLN","name":"Joplin Regional Airport","city":"Joplin","state":"Missouri","lat":37.1517982483,"lon":-94.498298645},{"iata":"JMS","name":"Jamestown Regional Airport","city":"Jamestown","state":"North Dakota","lat":46.92969894,"lon":-98.67819977},{"iata":"JST","name":"John Murtha Johnstown Cambria County Airport","city":"Johnstown","state":"Pennsylvania","lat":40.3161010742,"lon":-78.8339004517},{"iata":"BXS","name":"Borrego Valley Airport","city":"Borrego Springs","state":"California","lat":33.2589988708,"lon":-116.320999146},{"iata":"LAF","name":"Purdue University Airport","city":"Lafayette","state":"Indiana","lat":40.4123001099,"lon":-86.9368972778},{"iata":"LAN","name":"Capital City Airport","city":"Lansing","state":"Michigan","lat":42.7787017822,"lon":-84.5874023438},{"iata":"LAR","name":"Laramie Regional Airport","city":"Laramie","state":"Wyoming","lat":41.3120994568,"lon":-105.6750030518},{"iata":"LAS","name":"McCarran International Airport","city":"Las Vegas","state":"Nevada","lat":36.08010101,"lon":-115.1520004},{"iata":"LAX","name":"Los Angeles International Airport","city":"Los Angeles","state":"California","lat":33.94250107,"lon":-118.4079971},{"iata":"LBB","name":"Lubbock Preston Smith International Airport","city":"Lubbock","state":"Texas","lat":33.6636009216,"lon":-101.8229980469},{"iata":"LBE","name":"Arnold Palmer Regional Airport","city":"Latrobe","state":"Pennsylvania","lat":40.27590179,"lon":-79.40480042},{"iata":"LBF","name":"North Platte Regional Airport Lee Bird Field","city":"North Platte","state":"Nebraska","lat":41.12620163,"lon":-100.6839981},{"iata":"LBL","name":"Liberal Mid-America Regional Airport","city":"Liberal","state":"Kansas","lat":37.0442009,"lon":-100.9599991},{"iata":"LCH","name":"Lake Charles Regional Airport","city":"Lake Charles","state":"Louisiana","lat":30.1261005402,"lon":-93.2232971191},{"iata":"LEB","name":"Lebanon Municipal Airport","city":"Lebanon","state":"New Hampshire","lat":43.6260986328,"lon":-72.3041992188},{"iata":"LEX","name":"Blue Grass Airport","city":"Lexington","state":"Kentucky","lat":38.0364990234,"lon":-84.6059036255},{"iata":"LFT","name":"Lafayette Regional Airport","city":"Lafayette","state":"Louisiana","lat":30.20529938,"lon":-91.98760223},{"iata":"LGA","name":"La Guardia Airport","city":"New York","state":"New York","lat":40.77719879,"lon":-73.87259674},{"iata":"LGB","name":"Long Beach /Daugherty Field/ Airport","city":"Long Beach","state":"California","lat":33.81769943,"lon":-118.1520004},{"iata":"LIT","name":"Adams Field","city":"Little Rock","state":"Arkansas","lat":34.7294006348,"lon":-92.2242965698},{"iata":"LMT","name":"Klamath Falls Airport","city":"Klamath Falls","state":"Oregon","lat":42.1561012268,"lon":-121.733001709},{"iata":"LNK","name":"Lincoln Airport","city":"Lincoln","state":"Montana","lat":40.8510017395,"lon":-96.7592010498},{"iata":"LNS","name":"Lancaster Airport","city":"Lancaster","state":"Pennsylvania","lat":40.1217002869,"lon":-76.2960968018},{"iata":"BBX","name":"Wings Field","city":"Philadelphia","state":"Florida","lat":40.1375007629,"lon":-75.2650985718},{"iata":"LRD","name":"Laredo International Airport","city":"Laredo","state":"Texas","lat":27.543800354,"lon":-99.4616012573},{"iata":"LRU","name":"Las Cruces International Airport","city":"Las Cruces","state":"New Mexico","lat":32.2893981934,"lon":-106.9219970703},{"iata":"LSE","name":"La Crosse Municipal Airport","city":"La Crosse","state":"Wisconsin","lat":43.87900162,"lon":-91.25669861},{"iata":"LUK","name":"Cincinnati Municipal Airport Lunken Field","city":"Cincinnati","state":"Ohio","lat":39.10329819,"lon":-84.41860199},{"iata":"LWB","name":"Greenbrier Valley Airport","city":"Lewisburg","state":"West Virginia","lat":37.8582992554,"lon":-80.3994979858},{"iata":"LWS","name":"Lewiston Nez Perce County Airport","city":"Lewiston","state":"Idaho","lat":46.3745002747,"lon":-117.0149993896},{"iata":"LWT","name":"Lewistown Municipal Airport","city":"Lewistown","state":"Montana","lat":47.0493011475,"lon":-109.4670028687},{"iata":"LYH","name":"Lynchburg Regional Preston Glenn Field","city":"Lynchburg","state":"Virginia","lat":37.3266983032,"lon":-79.2004013062},{"iata":"MAF","name":"Midland International Airport","city":"Midland","state":"Texas","lat":31.9424991608,"lon":-102.202003479},{"iata":"MBS","name":"MBS International Airport","city":"Saginaw","state":"Michigan","lat":43.5329017639,"lon":-84.0795974731},{"iata":"MCE","name":"Merced Regional Macready Field","city":"Merced","state":"California","lat":37.28469849,"lon":-120.5139999},{"iata":"MCI","name":"Kansas City International Airport","city":"Kansas City","state":"Missouri","lat":39.2975997925,"lon":-94.7138977051},{"iata":"MCN","name":"Middle Georgia Regional Airport","city":"Macon","state":"Georgia","lat":32.6927986145,"lon":-83.6492004395},{"iata":"MCO","name":"Orlando International Airport","city":"Orlando","state":"Florida","lat":28.4293994904,"lon":-81.3089981079},{"iata":"MCW","name":"Mason City Municipal Airport","city":"Mason City","state":"Iowa","lat":43.1577987671,"lon":-93.3312988281},{"iata":"MDH","name":"Southern Illinois Airport","city":"Carbondale/Murphysboro","state":"Illinois","lat":37.7780990601,"lon":-89.2519989014},{"iata":"MDT","name":"Harrisburg International Airport","city":"Harrisburg","state":"Pennsylvania","lat":40.1935005188,"lon":-76.7633972168},{"iata":"MDW","name":"Chicago Midway International Airport","city":"Chicago","state":"Illinois","lat":41.7859992981,"lon":-87.7524032593},{"iata":"MEI","name":"Key Field","city":"Meridian","state":"Mississippi","lat":32.3325996399,"lon":-88.7518997192},{"iata":"MEM","name":"Memphis International Airport","city":"Memphis","state":"Tennessee","lat":35.0424003601,"lon":-89.9766998291},{"iata":"MFE","name":"Mc Allen Miller International Airport","city":"Mc Allen","state":"Texas","lat":26.17580032,"lon":-98.23860168},{"iata":"MFR","name":"Rogue Valley International Medford Airport","city":"Medford","state":"Oregon","lat":42.3741989136,"lon":-122.8730010986},{"iata":"MGM","name":"Montgomery Regional (Dannelly Field) Airport","city":"Montgomery","state":"Alabama","lat":32.30059814,"lon":-86.39399719},{"iata":"MGW","name":"Morgantown Municipal Walter L. Bill Hart Field","city":"Morgantown","state":"West Virginia","lat":39.64289856,"lon":-79.91629791},{"iata":"MHK","name":"Manhattan Regional Airport","city":"Manhattan","state":"Kansas","lat":39.1409988403,"lon":-96.6707992554},{"iata":"MHT","name":"Manchester Airport","city":"Manchester","state":"New Hampshire","lat":42.932598114,"lon":-71.4356994629},{"iata":"MHV","name":"Mojave Airport","city":"Mojave","state":"California","lat":35.05939865,"lon":-118.1520004},{"iata":"MIA","name":"Miami International Airport","city":"Miami","state":"Florida","lat":25.7931995392,"lon":-80.2906036377},{"iata":"MIE","name":"Delaware County Johnson Field","city":"Muncie","state":"Indiana","lat":40.2422981262,"lon":-85.3958969116},{"iata":"MKC","name":"Charles B. Wheeler Downtown Airport","city":"Kansas City","state":"Missouri","lat":39.1231994629,"lon":-94.5927963257},{"iata":"MKE","name":"General Mitchell International Airport","city":"Milwaukee","state":"Wisconsin","lat":42.9472007751,"lon":-87.8965988159},{"iata":"MKG","name":"Muskegon County Airport","city":"Muskegon","state":"Michigan","lat":43.16949844,"lon":-86.23819733},{"iata":"MKL","name":"Mc Kellar Sipes Regional Airport","city":"Jackson","state":"Tennessee","lat":35.59989929,"lon":-88.91560364},{"iata":"MLB","name":"Melbourne International Airport","city":"Melbourne","state":"Florida","lat":28.1028003693,"lon":-80.6453018188},{"iata":"MLI","name":"Quad City International Airport","city":"Moline","state":"Illinois","lat":41.4485015869,"lon":-90.5074996948},{"iata":"MLS","name":"Frank Wiley Field","city":"Miles City","state":"Montana","lat":46.4280014038,"lon":-105.8860015869},{"iata":"MLU","name":"Monroe Regional Airport","city":"Monroe","state":"Louisiana","lat":32.5108985901,"lon":-92.0376968384},{"iata":"MMH","name":"Mammoth Yosemite Airport","city":"Mammoth Lakes","state":"California","lat":37.62409973,"lon":-118.8379974},{"iata":"MMU","name":"Morristown Municipal Airport","city":"Morristown","state":"New Jersey","lat":40.7994003296,"lon":-74.4149017334},{"iata":"MOB","name":"Mobile Regional Airport","city":"Mobile","state":"Alabama","lat":30.6912002563,"lon":-88.2427978516},{"iata":"MOD","name":"Modesto City Co-Harry Sham Field","city":"Modesto","state":"California","lat":37.62580109,"lon":-120.9540024},{"iata":"MOT","name":"Minot International Airport","city":"Minot","state":"North Dakota","lat":48.2593994141,"lon":-101.2799987793},{"iata":"RMY","name":"Mariposa Yosemite Airport","city":"Mariposa","state":"California","lat":37.5108985901,"lon":-120.040000916},{"iata":"MPV","name":"Edward F Knapp State Airport","city":"Barre/Montpelier","state":"Vermont","lat":44.20349884,"lon":-72.56230164},{"iata":"MRY","name":"Monterey Peninsula Airport","city":"Monterey","state":"California","lat":36.5870018005,"lon":-121.8430023193},{"iata":"MSL","name":"Northwest Alabama Regional Airport","city":"Muscle Shoals","state":"Alabama","lat":34.74530029,"lon":-87.61019897},{"iata":"MSN","name":"Dane County Regional Truax Field","city":"Madison","state":"Wisconsin","lat":43.1399002075,"lon":-89.3375015259},{"iata":"MSO","name":"Missoula International Airport","city":"Missoula","state":"Montana","lat":46.91630173,"lon":-114.0910034},{"iata":"MSP","name":"Minneapolis-St Paul International/Wold-Chamberlain Airport","city":"Minneapolis","state":"Minnesota","lat":44.8819999695,"lon":-93.2218017578},{"iata":"MSS","name":"Massena International Richards Field","city":"Massena","state":"New York","lat":44.935798645,"lon":-74.8455963135},{"iata":"MSY","name":"Louis Armstrong New Orleans International Airport","city":"New Orleans","state":"Louisiana","lat":29.9934005737,"lon":-90.2580032349},{"iata":"MTJ","name":"Montrose Regional Airport","city":"Montrose","state":"Colorado","lat":38.5097999573,"lon":-107.893997192},{"iata":"MVL","name":"Morrisville Stowe State Airport","city":"Morrisville","state":"Vermont","lat":44.5345993042,"lon":-72.6139984131},{"iata":"MVY","name":"Martha's Vineyard Airport","city":"Martha's Vineyard","state":"Massachusetts","lat":41.3931007385,"lon":-70.6143035889},{"iata":"MYR","name":"Myrtle Beach International Airport","city":"Myrtle Beach","state":"South Carolina","lat":33.6796989441,"lon":-78.9282989502},{"iata":"BFT","name":"Beaufort MCAS - Merritt Field","city":"Beaufort","state":"South Carolina","lat":32.4774017334,"lon":-80.723197937},{"iata":"DGN","name":"Dahlgren Naval Surface Warfare Center Airport","city":"Dahlgren","state":"Virginia","lat":38.33250046,"lon":-77.03720093},{"iata":"NEL","name":"Lakehurst NAES /Maxfield Field","city":"Lakehurst","state":"New Jersey","lat":40.03329849,"lon":-74.353302},{"iata":"YUM","name":"Yuma MCAS/Yuma International Airport","city":"Yuma","state":"Arizona","lat":32.65660095,"lon":-114.6060028},{"iata":"NVN","name":"Nervino Airport","city":"Beckwourth","state":"California","lat":39.8185005188,"lon":-120.352996826},{"iata":"ODC","name":"Oakdale Airport","city":"Oakdale","state":"California","lat":37.75630188,"lon":-120.8000031},{"iata":"EYR","name":"Yerington Municipal Airport","city":"Yerington","state":"Nevada","lat":39.0041007996,"lon":-119.157997131},{"iata":"OAJ","name":"Albert J Ellis Airport","city":"Jacksonville","state":"North Carolina","lat":34.8292007446,"lon":-77.6120986938},{"iata":"OAK","name":"Metropolitan Oakland International Airport","city":"Oakland","state":"California","lat":37.7212982178,"lon":-122.2210006714},{"iata":"OAR","name":"Marina Municipal Airport","city":"Marina","state":"California","lat":36.68190002,"lon":-121.762001},{"iata":"OGS","name":"Ogdensburg International Airport","city":"Ogdensburg","state":"New York","lat":44.6819000244,"lon":-75.4654998779},{"iata":"OKC","name":"Will Rogers World Airport","city":"Oklahoma City","state":"Oklahoma","lat":35.3931007385,"lon":-97.6007003784},{"iata":"OLD","name":"Dewitt FieldOld Town Municipal Airport","city":"Old Town","state":"Maine","lat":44.95280075,"lon":-68.67430115},{"iata":"OLM","name":"Olympia Regional Airport","city":"Olympia","state":"Washington","lat":46.9693985,"lon":-122.9029999},{"iata":"OMA","name":"Eppley Airfield","city":"Omaha","state":"Nebraska","lat":41.3031997681,"lon":-95.8940963745},{"iata":"ONT","name":"Ontario International Airport","city":"Ontario","state":"California","lat":34.0559997559,"lon":-117.6009979248},{"iata":"ORD","name":"Chicago O'Hare International Airport","city":"Chicago","state":"Illinois","lat":41.97859955,"lon":-87.90480042},{"iata":"ORF","name":"Norfolk International Airport","city":"Norfolk","state":"Virginia","lat":36.8945999146,"lon":-76.2012023926},{"iata":"ORH","name":"Worcester Regional Airport","city":"Worcester","state":"Massachusetts","lat":42.2672996521,"lon":-71.8757019043},{"iata":"ESD","name":"Orcas Island Airport","city":"Eastsound","state":"Washington","lat":48.7081985474,"lon":-122.910003662},{"iata":"OSH","name":"Wittman Regional Airport","city":"Oshkosh","state":"Wisconsin","lat":43.9844017029,"lon":-88.5569992065},{"iata":"OTH","name":"Southwest Oregon Regional Airport","city":"North Bend","state":"Oregon","lat":43.417098999,"lon":-124.2460021973},{"iata":"OTM","name":"Ottumwa Regional Airport","city":"Ottumwa","state":"Iowa","lat":41.10660172,"lon":-92.44789886},{"iata":"OWB","name":"Owensboro Daviess County Airport","city":"Owensboro","state":"Kentucky","lat":37.74010086,"lon":-87.16680145},{"iata":"BSQ","name":"Bisbee Municipal Airport","city":"Bisbee","state":"Arizona","lat":31.3640003204,"lon":-109.883003235},{"iata":"HBK","name":"Holbrook Municipal Airport","city":"Holbrook","state":"Arizona","lat":34.940700531,"lon":-110.138000488},{"iata":"CWX","name":"Cochise County Airport","city":"Willcox","state":"Arizona","lat":32.24539948,"lon":-109.8949966},{"iata":"PAE","name":"Snohomish County (Paine Field) Airport","city":"Everett","state":"Washington","lat":47.90629959,"lon":-122.2819977},{"iata":"PAH","name":"Barkley Regional Airport","city":"Paducah","state":"Kentucky","lat":37.060798645,"lon":-88.7738037109},{"iata":"PBG","name":"Plattsburgh International Airport","city":"Plattsburgh","state":"New York","lat":44.6509017944,"lon":-73.4681015015},{"iata":"PBI","name":"Palm Beach International Airport","city":"West Palm Beach","state":"Florida","lat":26.6832008362,"lon":-80.0955963135},{"iata":"PDK","name":"DeKalb Peachtree Airport","city":"Atlanta","state":"Georgia","lat":33.8755989075,"lon":-84.3020019531},{"iata":"PDX","name":"Portland International Airport","city":"Portland","state":"Oregon","lat":45.58869934,"lon":-122.5979996},{"iata":"PFC","name":"Pacific City State Airport","city":"Pacific City","state":"Oregon","lat":45.199798584,"lon":-123.961997986},{"iata":"PFN","name":"Panama City-Bay Co International Airport","city":"Panama City","state":"Florida","lat":30.2120990753,"lon":-85.682800293},{"iata":"PGA","name":"Page Municipal Airport","city":"Page","state":"Arizona","lat":36.92610168,"lon":-111.447998},{"iata":"PGV","name":"Pitt Greenville Airport","city":"Greenville","state":"North Carolina","lat":35.6352005,"lon":-77.38529968},{"iata":"PHF","name":"Newport News Williamsburg International Airport","city":"Newport News","state":"Virginia","lat":37.13190079,"lon":-76.49299622},{"iata":"ADR","name":"Robert F Swinnie Airport","city":"Andrews","state":"South Carolina","lat":33.4516983032,"lon":-79.5261993408},{"iata":"PHL","name":"Philadelphia International Airport","city":"Philadelphia","state":"Pennsylvania","lat":39.8718986511,"lon":-75.2410964966},{"iata":"PHX","name":"Phoenix Sky Harbor International Airport","city":"Phoenix","state":"Arizona","lat":33.434299469,"lon":-112.0120010376},{"iata":"PIA","name":"Greater Peoria Regional Airport","city":"Peoria","state":"Illinois","lat":40.6641998291,"lon":-89.6932983398},{"iata":"PIB","name":"Hattiesburg Laurel Regional Airport","city":"Hattiesburg/Laurel","state":"Mississippi","lat":31.4671001434,"lon":-89.337097168},{"iata":"PIE","name":"St Petersburg Clearwater International Airport","city":"St Petersburg-Clearwater","state":"Florida","lat":27.91020012,"lon":-82.68740082},{"iata":"PIH","name":"Pocatello Regional Airport","city":"Pocatello","state":"Idaho","lat":42.9098014832,"lon":-112.5960006714},{"iata":"PIR","name":"Pierre Regional Airport","city":"Pierre","state":"South Dakota","lat":44.38270187,"lon":-100.2860031},{"iata":"PIT","name":"Pittsburgh International Airport","city":"Pittsburgh","state":"Pennsylvania","lat":40.49150085,"lon":-80.23290253},{"iata":"PKB","name":"Mid Ohio Valley Regional Airport","city":"Parkersburg","state":"West Virginia","lat":39.3451004028,"lon":-81.439201355},{"iata":"PLN","name":"Pellston Regional Airport of Emmet County Airport","city":"Pellston","state":"Michigan","lat":45.57089996,"lon":-84.79669952},{"iata":"PMD","name":"Palmdale Regional/USAF Plant 42 Airport","city":"Palmdale","state":"California","lat":34.62939835,"lon":-118.0849991},{"iata":"PNS","name":"Pensacola Regional Airport","city":"Pensacola","state":"Florida","lat":30.473400116,"lon":-87.1865997314},{"iata":"POU","name":"Dutchess County Airport","city":"Poughkeepsie","state":"New York","lat":41.6265983582,"lon":-73.8842010498},{"iata":"PQI","name":"Northern Maine Regional Airport at Presque Isle","city":"Presque Isle","state":"Maine","lat":46.68899918,"lon":-68.0447998},{"iata":"PRC","name":"Ernest A. Love Field","city":"Prescott","state":"Arizona","lat":34.65449905,"lon":-112.4199982},{"iata":"PSC","name":"Tri Cities Airport","city":"Pasco","state":"Washington","lat":46.2647018433,"lon":-119.1190032959},{"iata":"PSM","name":"Portsmouth International at Pease Airport","city":"Portsmouth","state":"New Hampshire","lat":43.0778999329,"lon":-70.8233032227},{"iata":"PSP","name":"Palm Springs International Airport","city":"Palm Springs","state":"California","lat":33.82970047,"lon":-116.5070037842},{"iata":"PUB","name":"Pueblo Memorial Airport","city":"Pueblo","state":"Colorado","lat":38.289100647,"lon":-104.4970016479},{"iata":"Id","name":"Pullman Moscow Regional Airport","city":"Pullman/Moscow","state":"Washington","lat":46.7439002991,"lon":-117.1100006104},{"iata":"PVD","name":"Theodore Francis Green State Airport","city":"Providence","state":"Rhode Island","lat":41.7326011658,"lon":-71.4204025269},{"iata":"PWM","name":"Portland International Jetport Airport","city":"Portland","state":"Maine","lat":43.64619827,"lon":-70.30930328},{"iata":"PWT","name":"Bremerton National Airport","city":"Bremerton","state":"Washington","lat":47.4902000427,"lon":-122.7649993896},{"iata":"RAP","name":"Rapid City Regional Airport","city":"Rapid City","state":"South Dakota","lat":44.04529953,"lon":-103.0569992065},{"iata":"RCT","name":"Nartron Field","city":"Reed City","state":"Michigan","lat":43.9000015259,"lon":-85.5167007446},{"iata":"RDD","name":"Redding Municipal Airport","city":"Redding","state":"California","lat":40.50899887,"lon":-122.2929993},{"iata":"RDG","name":"Reading Regional Carl A Spaatz Field","city":"Reading","state":"Pennsylvania","lat":40.3785018921,"lon":-75.9652023315},{"iata":"RDM","name":"Roberts Field","city":"Redmond","state":"Indiana","lat":44.2541008,"lon":-121.1500015},{"iata":"RDU","name":"Raleigh Durham International Airport","city":"Raleigh/Durham","state":"North Carolina","lat":35.8776016235,"lon":-78.7874984741},{"iata":"RFD","name":"Chicago Rockford International Airport","city":"Chicago/Rockford","state":"Illinois","lat":42.195400238,"lon":-89.0971984863},{"iata":"RHI","name":"Rhinelander Oneida County Airport","city":"Rhinelander","state":"Wisconsin","lat":45.6311988831,"lon":-89.4674987793},{"iata":"RIC","name":"Richmond International Airport","city":"Richmond","state":"Virginia","lat":37.5051994324,"lon":-77.3197021484},{"iata":"RKD","name":"Knox County Regional Airport","city":"Rockland","state":"Maine","lat":44.06010056,"lon":-69.09919739},{"iata":"RKS","name":"Rock Springs Sweetwater County Airport","city":"Rock Springs","state":"Wyoming","lat":41.59420013,"lon":-109.0650024},{"iata":"RNO","name":"Reno Tahoe International Airport","city":"Reno","state":"Nevada","lat":39.4990997314,"lon":-119.7679977417},{"iata":"ROA","name":"Roanoke Regional Woodrum Field","city":"Roanoke","state":"Virginia","lat":37.3255004883,"lon":-79.975402832},{"iata":"ROC","name":"Greater Rochester International Airport","city":"Rochester","state":"New York","lat":43.1189002991,"lon":-77.6724014282},{"iata":"ROW","name":"Roswell International Air Center Airport","city":"Roswell","state":"New Mexico","lat":33.3016014099,"lon":-104.53099823},{"iata":"RQO","name":"El Reno Regional Airport","city":"El Reno","state":"Oklahoma","lat":35.47269821,"lon":-98.00579834},{"iata":"RST","name":"Rochester International Airport","city":"Rochester","state":"Minnesota","lat":43.9082984924,"lon":-92.5},{"iata":"RSW","name":"Southwest Florida International Airport","city":"Fort Myers","state":"Florida","lat":26.5361995697,"lon":-81.7552032471},{"iata":"RUT","name":"Rutland - Southern Vermont Regional Airport","city":"Rutland","state":"Vermont","lat":43.52939987,"lon":-72.94960022},{"iata":"RWI","name":"Rocky Mount Wilson Regional Airport","city":"Rocky Mount","state":"North Carolina","lat":35.856300354,"lon":-77.8918991089},{"iata":"RXE","name":"Rexburg Madison County Airport","city":"Rexburg","state":"Idaho","lat":43.8339004517,"lon":-111.805000305},{"iata":"AHM","name":"Ashland Municipal Sumner Parker Field","city":"Ashland","state":"Oregon","lat":42.1902999878,"lon":-122.661003113},{"iata":"BDY","name":"Bandon State Airport","city":"Bandon","state":"Oregon","lat":43.08649826,"lon":-124.4079971},{"iata":"SUO","name":"Sunriver Airport","city":"Sunriver","state":"Oregon","lat":43.8763008118,"lon":-121.45300293},{"iata":"VSK","name":"Vista Field","city":"Kennewick","state":"Washington","lat":46.2186012268,"lon":-119.209999084},{"iata":"SAF","name":"Santa Fe Municipal Airport","city":"Santa Fe","state":"New Mexico","lat":35.617099762,"lon":-106.088996887},{"iata":"SAN","name":"San Diego International Airport","city":"San Diego","state":"California","lat":32.7336006165,"lon":-117.1900024414},{"iata":"SAS","name":"Salton Sea Airport","city":"Salton City","state":"California","lat":33.2414016724,"lon":-115.952003479},{"iata":"SAT","name":"San Antonio International Airport","city":"San Antonio","state":"Texas","lat":29.533700943,"lon":-98.4698028564},{"iata":"SAV","name":"Savannah Hilton Head International Airport","city":"Savannah","state":"Georgia","lat":32.12760162,"lon":-81.20210266},{"iata":"SBA","name":"Santa Barbara Municipal Airport","city":"Santa Barbara","state":"California","lat":34.42620087,"lon":-119.8399963},{"iata":"SBN","name":"South Bend Regional Airport","city":"South Bend","state":"Indiana","lat":41.7086982727,"lon":-86.3172988892},{"iata":"SBP","name":"San Luis County Regional Airport","city":"San Luis Obispo","state":"California","lat":35.2368011475,"lon":-120.641998291},{"iata":"SBY","name":"Salisbury Ocean City Wicomico Regional Airport","city":"Salisbury","state":"Maryland","lat":38.3404998779,"lon":-75.5102996826},{"iata":"SDF","name":"Louisville International Standiford Field","city":"Louisville","state":"Kentucky","lat":38.1744003296,"lon":-85.736000061},{"iata":"SDY","name":"Sidney Richland Municipal Airport","city":"Sidney","state":"Montana","lat":47.70690155,"lon":-104.1930008},{"iata":"SEA","name":"Seattle Tacoma International Airport","city":"Seattle","state":"Washington","lat":47.4490013123,"lon":-122.3089981079},{"iata":"SFB","name":"Orlando Sanford International Airport","city":"Orlando","state":"Florida","lat":28.7775993347,"lon":-81.2375030518},{"iata":"SFO","name":"San Francisco International Airport","city":"San Francisco","state":"California","lat":37.6189994812,"lon":-122.375},{"iata":"SGF","name":"Springfield Branson National Airport","city":"Springfield","state":"Missouri","lat":37.24570084,"lon":-93.38860321},{"iata":"SGU","name":"St George Municipal Airport","city":"St George","state":"Utah","lat":37.0363888889,"lon":-113.510305556},{"iata":"SHD","name":"Shenandoah Valley Regional Airport","city":"Staunton/Waynesboro/Harrisonburg","state":"Virginia","lat":38.2638015747,"lon":-78.8964004517},{"iata":"SHR","name":"Sheridan County Airport","city":"Sheridan","state":"Wyoming","lat":44.7691993713,"lon":-106.9800033569},{"iata":"SHV","name":"Shreveport Regional Airport","city":"Shreveport","state":"Louisiana","lat":32.4466018677,"lon":-93.8255996704},{"iata":"SJC","name":"Norman Y. Mineta San Jose International Airport","city":"San Jose","state":"California","lat":37.3625984192,"lon":-121.9290008545},{"iata":"SJT","name":"San Angelo Regional Mathis Field","city":"San Angelo","state":"Texas","lat":31.3577003479,"lon":-100.4960021973},{"iata":"SLC","name":"Salt Lake City International Airport","city":"Salt Lake City","state":"Utah","lat":40.7883987427,"lon":-111.9779968262},{"iata":"SLK","name":"Adirondack Regional Airport","city":"Saranac Lake","state":"New York","lat":44.3852996826,"lon":-74.206199646},{"iata":"SLN","name":"Salina Municipal Airport","city":"Salina","state":"Kansas","lat":38.7910003662,"lon":-97.6521987915},{"iata":"SMF","name":"Sacramento International Airport","city":"Sacramento","state":"California","lat":38.695400238,"lon":-121.591003418},{"iata":"SMX","name":"Santa Maria Pub/Capt G Allan Hancock Field","city":"Santa Maria","state":"California","lat":34.89889908,"lon":-120.4570007},{"iata":"SNA","name":"John Wayne Airport-Orange County Airport","city":"Santa Ana","state":"California","lat":33.67570114,"lon":-117.8679962},{"iata":"SOW","name":"Show Low Regional Airport","city":"Show Low","state":"Arizona","lat":34.265499115,"lon":-110.005996704},{"iata":"SPI","name":"Abraham Lincoln Capital Airport","city":"Springfield","state":"Illinois","lat":39.84410095,"lon":-89.67790222},{"iata":"SPS","name":"Sheppard Air Force Base-Wichita Falls Municipal Airport","city":"Wichita Falls","state":"Texas","lat":33.98880005,"lon":-98.49189758},{"iata":"SRQ","name":"Sarasota Bradenton International Airport","city":"Sarasota/Bradenton","state":"Florida","lat":27.3953990936,"lon":-82.554397583},{"iata":"STC","name":"St Cloud Regional Airport","city":"St Cloud","state":"Minnesota","lat":45.5466003418,"lon":-94.0598983765},{"iata":"STL","name":"Lambert St Louis International Airport","city":"St Louis","state":"Missouri","lat":38.7486991882,"lon":-90.3700027466},{"iata":"STP","name":"St Paul Downtown Holman Field","city":"St Paul","state":"Minnesota","lat":44.9345016479,"lon":-93.0599975586},{"iata":"STS","name":"Charles M. Schulz Sonoma County Airport","city":"Santa Rosa","state":"California","lat":38.50899887,"lon":-122.8130035},{"iata":"SUN","name":"Friedman Memorial Airport","city":"Hailey","state":"Idaho","lat":43.50439835,"lon":-114.2959976},{"iata":"SUX","name":"Sioux Gateway Col. Bud Day Field","city":"Sioux City","state":"Iowa","lat":42.40259933,"lon":-96.38439941},{"iata":"SVC","name":"Grant County Airport","city":"Silver City","state":"New Mexico","lat":32.6365013123,"lon":-108.15599823},{"iata":"SWF","name":"Stewart International Airport","city":"Newburgh","state":"New York","lat":41.5041007996,"lon":-74.1047973633},{"iata":"SYN","name":"Stanton Airfield","city":"Stanton","state":"Minnesota","lat":44.4754981995,"lon":-93.0162963867},{"iata":"SYR","name":"Syracuse Hancock International Airport","city":"Syracuse","state":"New York","lat":43.1111984253,"lon":-76.106300354},{"iata":"SZN","name":"Santa Cruz Island Airport","city":"Santa Barbara","state":"California","lat":34.0606002808,"lon":-119.915000916},{"iata":"SZP","name":"Santa Paula Airport","city":"Santa Paula","state":"California","lat":34.34719849,"lon":-119.060997},{"iata":"TAD","name":"Perry Stokes Airport","city":"Trinidad","state":"Colorado","lat":37.2593994141,"lon":-104.341003418},{"iata":"TBN","name":"Waynesville-St. Robert Regional Forney field","city":"Fort Leonard Wood","state":"Missouri","lat":37.74160004,"lon":-92.14070129},{"iata":"TCL","name":"Tuscaloosa Regional Airport","city":"Tuscaloosa","state":"Alabama","lat":33.2206001282,"lon":-87.6113967896},{"iata":"TEX","name":"Telluride Regional Airport","city":"Telluride","state":"Colorado","lat":37.9538002,"lon":-107.9079971},{"iata":"TLH","name":"Tallahassee Regional Airport","city":"Tallahassee","state":"Florida","lat":30.3964996338,"lon":-84.3503036499},{"iata":"OTK","name":"Tillamook Airport","city":"Tillamook","state":"Oregon","lat":45.4182014465,"lon":-123.814002991},{"iata":"ASQ","name":"Austin Airport","city":"Austin","state":"Nevada","lat":39.4679985046,"lon":-117.194999695},{"iata":"TOL","name":"Toledo Express Airport","city":"Toledo","state":"Ohio","lat":41.58679962,"lon":-83.80780029},{"iata":"TPA","name":"Tampa International Airport","city":"Tampa","state":"Florida","lat":27.9755001068,"lon":-82.533203125},{"iata":"TPL","name":"Draughon Miller Central Texas Regional Airport","city":"Temple","state":"Texas","lat":31.1525001526,"lon":-97.4077987671},{"iata":"TRI","name":"Tri Cities Regional Tn Va Airport","city":"Bristol/Johnson/Kingsport","state":"Tennessee","lat":36.4752006531,"lon":-82.4074020386},{"iata":"TTN","name":"Trenton Mercer Airport","city":"Trenton","state":"New Jersey","lat":40.2766990662,"lon":-74.8134994507},{"iata":"TUL","name":"Tulsa International Airport","city":"Tulsa","state":"Oklahoma","lat":36.1983985901,"lon":-95.8880996704},{"iata":"TUP","name":"Tupelo Regional Airport","city":"Tupelo","state":"Mississippi","lat":34.2681007385,"lon":-88.7698974609},{"iata":"TUS","name":"Tucson International Airport","city":"Tucson","state":"Arizona","lat":32.1161003113,"lon":-110.9410018921},{"iata":"TVC","name":"Cherry Capital Airport","city":"Traverse City","state":"Michigan","lat":44.7414016724,"lon":-85.5821990967},{"iata":"TVL","name":"Lake Tahoe Airport","city":"South Lake Tahoe","state":"California","lat":38.893901825,"lon":-119.9950027466},{"iata":" Ms","name":"Vicksburg Tallulah Regional Airport","city":"Tallulah/Vicksburg","state":"Louisiana","lat":32.351600647,"lon":-91.0277023315},{"iata":"TWF","name":"Joslin Field Magic Valley Regional Airport","city":"Twin Falls","state":"Idaho","lat":42.48180008,"lon":-114.487999},{"iata":"TXK","name":"Texarkana Regional Webb Field","city":"Texarkana","state":"Arkansas","lat":33.4537010193,"lon":-93.9909973145},{"iata":"TYR","name":"Tyler Pounds Regional Airport","city":"Tyler","state":"Texas","lat":32.3540992737,"lon":-95.4023971558},{"iata":"TYS","name":"McGhee Tyson Airport","city":"Knoxville","state":"Tennessee","lat":35.81100082,"lon":-83.9940033},{"iata":"BFG","name":"Bullfrog Basin Airport","city":"Glen Canyon Natl Rec Area","state":"Utah","lat":37.54579926,"lon":-110.7129974},{"iata":"RVR","name":"Green River Municipal Airport","city":"Green River","state":"Utah","lat":38.9613990784,"lon":-110.226997375},{"iata":"ICS","name":"Cascade Airport","city":"Cascade","state":"Idaho","lat":44.4938011169,"lon":-116.01599884},{"iata":"UIN","name":"Quincy Regional Baldwin Field","city":"Quincy","state":"Illinois","lat":39.94269943,"lon":-91.19460297},{"iata":"ATO","name":"Ohio University Snyder Field","city":"Athens/Albany","state":"Ohio","lat":39.2109985352,"lon":-82.2313995361},{"iata":"SCE","name":"University Park Airport","city":"State College","state":"Pennsylvania","lat":40.8493003845,"lon":-77.8487014771},{"iata":"VAD","name":"Moody Air Force Base","city":"Valdosta","state":"Georgia","lat":30.9678001404,"lon":-83.1930007935},{"iata":"VCT","name":"Victoria Regional Airport","city":"Victoria","state":"Texas","lat":28.8526000977,"lon":-96.9185028076},{"iata":"VKX","name":"Potomac Airfield","city":"Friendly","state":"Maryland","lat":38.74760056,"lon":-76.9571991},{"iata":"VLD","name":"Valdosta Regional Airport","city":"Valdosta","state":"Georgia","lat":30.7824993134,"lon":-83.2767028809},{"iata":"VPS","name":"Eglin Air Force Base","city":"Valparaiso","state":"Florida","lat":30.4832000732,"lon":-86.5253982544},{"iata":"VRB","name":"Vero Beach Municipal Airport","city":"Vero Beach","state":"Florida","lat":27.6555995941,"lon":-80.4179000854},{"iata":"VSF","name":"Hartness State (Springfield) Airport","city":"Springfield","state":"Vermont","lat":43.34360123,"lon":-72.51730347},{"iata":"WAL","name":"Wallops Flight Facility Airport","city":"Wallops Island","state":"Virginia","lat":37.9402008057,"lon":-75.4664001465},{"iata":"WAY","name":"Greene County Airport","city":"Waynesburg","state":"Pennsylvania","lat":39.90010071,"lon":-80.13310242},{"iata":"WRI","name":"Mc Guire Air Force Base","city":"Wrightstown","state":"New Jersey","lat":40.0155983,"lon":-74.59169769},{"iata":"WRL","name":"Worland Municipal Airport","city":"Worland","state":"Wyoming","lat":43.9656982422,"lon":-107.9509963989},{"iata":"XNA","name":"Northwest Arkansas Regional Airport","city":"Fayetteville/Springdale/","state":"Arkansas","lat":36.2818984985,"lon":-94.3068008423},{"iata":"YIP","name":"Willow Run Airport","city":"Detroit","state":"Michigan","lat":42.23789978,"lon":-83.53040314},{"iata":"YKM","name":"Yakima Air Terminal McAllister Field","city":"Yakima","state":"Washington","lat":46.56819916,"lon":-120.5439987},{"iata":"YNG","name":"Youngstown Warren Regional Airport","city":"Youngstown/Warren","state":"Ohio","lat":41.26070023,"lon":-80.67910004},{"iata":"ZPH","name":"Zephyrhills Municipal Airport","city":"Zephyrhills","state":"Florida","lat":28.2282009125,"lon":-82.1558990479},{"iata":"ZZV","name":"Zanesville Municipal Airport","city":"Zanesville","state":"Ohio","lat":39.9444007874,"lon":-81.8920974731},{"iata":"DWN","name":"Downtown Airpark","city":"Oklahoma City","state":"Oklahoma","lat":35.4491996765,"lon":-97.5330963135},{"iata":"AKB","name":"Atka Airport","city":"Atka","state":"Alaska","lat":52.22029877,"lon":-174.2059937},{"iata":"PML","name":"Port Moller Airport","city":"Cold Bay","state":"Alaska","lat":56.0060005188,"lon":-160.561004639},{"iata":"PAQ","name":"Palmer Municipal Airport","city":"Palmer","state":"Alaska","lat":61.5948982239,"lon":-149.0890045166},{"iata":"BTI","name":"Barter Island LRRS Airport","city":"Barter Island Lrrs","state":"Alaska","lat":70.1340026855,"lon":-143.582000732},{"iata":"BET","name":"Bethel Airport","city":"Bethel","state":"Alaska","lat":60.77980042,"lon":-161.8379974},{"iata":"BVU","name":"Beluga Airport","city":"Beluga","state":"Alaska","lat":61.1721992493,"lon":-151.044006348},{"iata":"BIG","name":"Allen Army Airfield","city":"Delta Junction Ft Greely","state":"Alaska","lat":63.9944992065,"lon":-145.722000122},{"iata":"BKC","name":"Buckland Airport","city":"Buckland","state":"Alaska","lat":65.9815979004,"lon":-161.149002075},{"iata":"BMX","name":"Big Mountain Airport","city":"Big Mountain","state":"Alaska","lat":59.3611984253,"lon":-155.259002686},{"iata":"BRW","name":"Wiley Post Will Rogers Memorial Airport","city":"Barrow","state":"Alaska","lat":71.2854003906,"lon":-156.7660064697},{"iata":"BTT","name":"Bettles Airport","city":"Bettles","state":"Alaska","lat":66.91390228,"lon":-151.529007},{"iata":"CDB","name":"Cold Bay Airport","city":"Cold Bay","state":"Alaska","lat":55.2061004639,"lon":-162.7250061035},{"iata":"CEM","name":"Central Airport","city":"Central","state":"Alaska","lat":65.57379913,"lon":-144.7830048},{"iata":"CHU","name":"Chuathbaluk Airport","city":"Chuathbaluk","state":"Alaska","lat":61.57910156,"lon":-159.2160034},{"iata":"CIK","name":"Chalkyitsik Airport","city":"Chalkyitsik","state":"Alaska","lat":66.6449966431,"lon":-143.740005493},{"iata":"SCM","name":"Scammon Bay Airport","city":"Scammon Bay","state":"Alaska","lat":61.8452987671,"lon":-165.570999146},{"iata":"IRC","name":"Circle City /New/ Airport","city":"Circle","state":"Alaska","lat":65.83049774,"lon":-144.076004},{"iata":"CDV","name":"Merle K (Mudhole) Smith Airport","city":"Cordova","state":"Alaska","lat":60.4917984,"lon":-145.4779968},{"iata":"CZF","name":"Cape Romanzof LRRS Airport","city":"Cape Romanzof","state":"Alaska","lat":61.78030014,"lon":-166.0390015},{"iata":"DRG","name":"Deering Airport","city":"Deering","state":"Alaska","lat":66.0696029663,"lon":-162.76600647},{"iata":"RDB","name":"Red Dog Airport","city":"Red Dog","state":"Alaska","lat":68.0320968628,"lon":-162.899002075},{"iata":"ADK","name":"Adak Airport","city":"Adak Island","state":"Alaska","lat":51.8779983521,"lon":-176.6459960938},{"iata":"DLG","name":"Dillingham Airport","city":"Dillingham","state":"Alaska","lat":59.04470062,"lon":-158.5050049},{"iata":"ADQ","name":"Kodiak Airport","city":"Kodiak","state":"Alaska","lat":57.75,"lon":-152.4940033},{"iata":"DUT","name":"Unalaska Airport","city":"Unalaska","state":"Alaska","lat":53.900100708,"lon":-166.5440063477},{"iata":"EDF","name":"Elmendorf Air Force Base","city":"Anchorage","state":"Alaska","lat":61.2509994507,"lon":-149.8070068359},{"iata":"EEK","name":"Eek Airport","city":"Eek","state":"Alaska","lat":60.21367264,"lon":-162.0438843},{"iata":"EHM","name":"Cape Newenham LRRS Airport","city":"Cape Newenham","state":"Alaska","lat":58.6464004517,"lon":-162.06300354},{"iata":"EIL","name":"Eielson Air Force Base","city":"Fairbanks","state":"Alaska","lat":64.66570282,"lon":-147.102005},{"iata":"EMK","name":"Emmonak Airport","city":"Emmonak","state":"Alaska","lat":62.78609848,"lon":-164.4909973},{"iata":"ENA","name":"Kenai Municipal Airport","city":"Kenai","state":"Alaska","lat":60.5731010437,"lon":-151.2449951172},{"iata":"FAI","name":"Fairbanks International Airport","city":"Fairbanks","state":"Alaska","lat":64.81510162,"lon":-147.8560028},{"iata":"FBK","name":"Ladd AAF Airfield","city":"Fairbanks/Ft Wainwright","state":"Alaska","lat":64.83750153,"lon":-147.6139984},{"iata":"AFE","name":"Kake Airport","city":"Kake","state":"Alaska","lat":56.9613990784,"lon":-133.9100036621},{"iata":"ABL","name":"Ambler Airport","city":"Ambler","state":"Alaska","lat":67.106300354,"lon":-157.856994629},{"iata":"FMC","name":"Five Mile Airport","city":"Five Mile","state":"Alaska","lat":65.9270019531,"lon":-149.839996338},{"iata":"GAL","name":"Edward G. Pitka Sr Airport","city":"Galena","state":"Alaska","lat":64.73619843,"lon":-156.9369965},{"iata":"GKN","name":"Gulkana Airport","city":"Gulkana","state":"Alaska","lat":62.1548996,"lon":-145.4570007},{"iata":"GLV","name":"Golovin Airport","city":"Golovin","state":"Alaska","lat":64.5504989624,"lon":-163.007003784},{"iata":"GAM","name":"Gambell Airport","city":"Gambell","state":"Alaska","lat":63.7667999268,"lon":-171.733001709},{"iata":"GST","name":"Gustavus Airport","city":"Gustavus","state":"Alaska","lat":58.4253006,"lon":-135.7070007},{"iata":"SGY","name":"Skagway Airport","city":"Skagway","state":"Alaska","lat":59.4600982666,"lon":-135.3159942627},{"iata":"GMT","name":"Granite Mountain Air Station","city":"Granite Mountain","state":"Alaska","lat":65.40209961,"lon":-161.2810059},{"iata":"HCR","name":"Holy Cross Airport","city":"Holy Cross","state":"Alaska","lat":62.1883010864,"lon":-159.7749938965},{"iata":"HNE","name":"Tahneta Pass Airport","city":"Tahneta Pass Lodge","state":"Alaska","lat":61.9014015198,"lon":-147.304000854},{"iata":"HNS","name":"Haines Airport","city":"Haines","state":"Alaska","lat":59.2438011169,"lon":-135.5240020752},{"iata":"HOM","name":"Homer Airport","city":"Homer","state":"Alaska","lat":59.6455993652,"lon":-151.4770050049},{"iata":"HPB","name":"Hooper Bay Airport","city":"Hooper Bay","state":"Alaska","lat":61.52389908,"lon":-166.1470032},{"iata":"SHX","name":"Shageluk Airport","city":"Shageluk","state":"Alaska","lat":62.6922988892,"lon":-159.569000244},{"iata":"IGG","name":"Igiugig Airport","city":"Igiugig","state":"Alaska","lat":59.3240013123,"lon":-155.9019927979},{"iata":"EGX","name":"Egegik Airport","city":"Egegik","state":"Alaska","lat":58.1855010986,"lon":-157.375},{"iata":"IAN","name":"Bob Baker Memorial Airport","city":"Kiana","state":"Alaska","lat":66.9759979248,"lon":-160.43699646},{"iata":"ILI","name":"Iliamna Airport","city":"Iliamna","state":"Alaska","lat":59.75439835,"lon":-154.9109955},{"iata":"UTO","name":"Indian Mountain LRRS Airport","city":"Utopia Creek","state":"Alaska","lat":65.99279785,"lon":-153.7039948},{"iata":"WAA","name":"Wales Airport","city":"Wales","state":"Alaska","lat":65.6225967407,"lon":-168.095001221},{"iata":"JNU","name":"Juneau International Airport","city":"Juneau","state":"Alaska","lat":58.3549995422,"lon":-134.5760040283},{"iata":"KFP","name":"False Pass Airport","city":"False Pass","state":"Alaska","lat":54.8474006653,"lon":-163.4100036621},{"iata":"AKK","name":"Akhiok Airport","city":"Akhiok","state":"Alaska","lat":56.9387016296,"lon":-154.182998657},{"iata":"KKA","name":"Koyuk Alfred Adams Airport","city":"Koyuk","state":"Alaska","lat":64.9394989014,"lon":-161.154006958},{"iata":"AKN","name":"King Salmon Airport","city":"King Salmon","state":"Alaska","lat":58.67679977,"lon":-156.6490021},{"iata":"IKO","name":"Nikolski Air Station","city":"Nikolski","state":"Alaska","lat":52.9416007996,"lon":-168.8489990234},{"iata":"AKP","name":"Anaktuvuk Pass Airport","city":"Anaktuvuk Pass","state":"Alaska","lat":68.13359833,"lon":-151.7429962},{"iata":"KTN","name":"Ketchikan International Airport","city":"Ketchikan","state":"Alaska","lat":55.35559845,"lon":-131.7140045},{"iata":"UUK","name":"Ugnu-Kuparuk Airport","city":"Kuparuk","state":"Alaska","lat":70.3308029175,"lon":-149.598007202},{"iata":"KAL","name":"Kaltag Airport","city":"Kaltag","state":"Alaska","lat":64.31909943,"lon":-158.7409973},{"iata":"AKW","name":"Klawock Airport","city":"Klawock","state":"Alaska","lat":55.5792007446,"lon":-133.0760040283},{"iata":"KYK","name":"Karluk Airport","city":"Karluk","state":"Alaska","lat":57.5671005249,"lon":-154.449996948},{"iata":"KLG","name":"Kalskag Airport","city":"Kalskag","state":"Alaska","lat":61.5363006592,"lon":-160.341003418},{"iata":"PTA","name":"Port Alsworth Airport","city":"Port Alsworth","state":"Alaska","lat":60.2042999268,"lon":-154.319000244},{"iata":"LNI","name":"Lonely Air Station","city":"Lonely","state":"Alaska","lat":70.91069794,"lon":-153.2420044},{"iata":"DQH","name":"Alpine Airstrip","city":"Deadhorse","state":"Alaska","lat":70.3442993164,"lon":-150.945007324},{"iata":"LUR","name":"Cape Lisburne LRRS Airport","city":"Cape Lisburne","state":"Alaska","lat":68.87509918,"lon":-166.1100006},{"iata":"KMO","name":"Manokotak Airport","city":"Manokotak","state":"Alaska","lat":58.9902000427,"lon":-159.050003052},{"iata":"MCG","name":"McGrath Airport","city":"McGrath","state":"Alaska","lat":62.95289993,"lon":-155.6060028},{"iata":"MLY","name":"Manley Hot Springs Airport","city":"Manley Hot Springs","state":"Alaska","lat":64.9975967407,"lon":-150.643997192},{"iata":"MOU","name":"Mountain Village Airport","city":"Mountain Village","state":"Alaska","lat":62.0954017639,"lon":-163.6820068359},{"iata":"MRI","name":"Merrill Field","city":"Anchorage","state":"Iowa","lat":61.2135009766,"lon":-149.8439941406},{"iata":"MYU","name":"Mekoryuk Airport","city":"Mekoryuk","state":"Alaska","lat":60.3713989258,"lon":-166.2709960938},{"iata":"WNA","name":"Napakiak Airport","city":"Napakiak","state":"Alaska","lat":60.6902999878,"lon":-161.9790039063},{"iata":"ANC","name":"Ted Stevens Anchorage International Airport","city":"Anchorage","state":"Alaska","lat":61.1744003296,"lon":-149.9960021973},{"iata":"ANI","name":"Aniak Airport","city":"Aniak","state":"Alaska","lat":61.5816001892,"lon":-159.5429992676},{"iata":"ENN","name":"Nenana Municipal Airport","city":"Nenana","state":"Alaska","lat":64.5473022461,"lon":-149.074005127},{"iata":"ANN","name":"Annette Island Airport","city":"Annette","state":"Alaska","lat":55.0424003601,"lon":-131.5720062256},{"iata":"ANV","name":"Anvik Airport","city":"Anvik","state":"Alaska","lat":62.64670181,"lon":-160.1909943},{"iata":"KNW","name":"New Stuyahok Airport","city":"New Stuyahok","state":"Alaska","lat":59.4499015808,"lon":-157.32800293},{"iata":"OBU","name":"Kobuk Airport","city":"Kobuk","state":"Alaska","lat":66.9123001099,"lon":-156.897003174},{"iata":"PCA","name":"Portage Creek Airport","city":"Portage Creek","state":"Alaska","lat":58.90650177,"lon":-157.714004517},{"iata":"HNH","name":"Hoonah Airport","city":"Hoonah","state":"Alaska","lat":58.0960998535,"lon":-135.4100036621},{"iata":"OME","name":"Nome Airport","city":"Nome","state":"Alaska","lat":64.5121994019,"lon":-165.4450073242},{"iata":"OOK","name":"Toksook Bay Airport","city":"Toksook Bay","state":"Alaska","lat":60.54140091,"lon":-165.0870056},{"iata":"ORT","name":"Northway Airport","city":"Northway","state":"Alaska","lat":62.9612999,"lon":-141.9290009},{"iata":"OTZ","name":"Ralph Wien Memorial Airport","city":"Kotzebue","state":"Alaska","lat":66.88469696,"lon":-162.598999},{"iata":"PBV","name":"St George Airport","city":"St George","state":"South Carolina","lat":56.5783004761,"lon":-169.6620025635},{"iata":"KPC","name":"Port Clarence Coast Guard Station","city":"Port Clarence","state":"Alaska","lat":65.2537002563,"lon":-166.85899353},{"iata":"PSG","name":"Petersburg James A Johnson Airport","city":"Petersburg","state":"Alaska","lat":56.80170059,"lon":-132.9450073},{"iata":"PTH","name":"Port Heiden Airport","city":"Port Heiden","state":"Alaska","lat":56.9590988159,"lon":-158.6329956055},{"iata":"PKA","name":"Napaskiak Airport","city":"Napaskiak","state":"Alaska","lat":60.70289993,"lon":-161.7779999},{"iata":"PTU","name":"Platinum Airport","city":"Platinum","state":"Alaska","lat":59.0113983154,"lon":-161.8200073242},{"iata":"PIP","name":"Pilot Point Airport","city":"Pilot Point","state":"Alaska","lat":57.5803985596,"lon":-157.572006226},{"iata":"PHO","name":"Point Hope Airport","city":"Point Hope","state":"Alaska","lat":68.3488006592,"lon":-166.7989959717},{"iata":"NUI","name":"Nuiqsut Airport","city":"Nuiqsut","state":"Alaska","lat":70.2099990845,"lon":-151.005996704},{"iata":"ARC","name":"Arctic Village Airport","city":"Arctic Village","state":"Alaska","lat":68.1147003174,"lon":-145.578994751},{"iata":"RBY","name":"Ruby Airport","city":"Ruby","state":"Alaska","lat":64.72720337,"lon":-155.4700012},{"iata":"SVA","name":"Savoonga Airport","city":"Savoonga","state":"Alaska","lat":63.6864013672,"lon":-170.4929962158},{"iata":"SCC","name":"Deadhorse Airport","city":"Deadhorse","state":"Alaska","lat":70.19470215,"lon":-148.4649963},{"iata":"SDP","name":"Sand Point Airport","city":"Sand Point","state":"Alaska","lat":55.3149986267,"lon":-160.5229949951},{"iata":"SHH","name":"Shishmaref Airport","city":"Shishmaref","state":"Alaska","lat":66.2496032715,"lon":-166.0890045166},{"iata":"SIT","name":"Sitka Rocky Gutierrez Airport","city":"Sitka","state":"Alaska","lat":57.0471000671,"lon":-135.3619995117},{"iata":"SQL","name":"Sleetmute Airport","city":"Sleetmute","state":"Alaska","lat":61.7005004883,"lon":-157.166000366},{"iata":"KSM","name":"St Mary's Airport","city":"St Mary's","state":"Alaska","lat":62.0605011,"lon":-163.302002},{"iata":"SNP","name":"St Paul Island Airport","city":"St Paul Island","state":"Alaska","lat":57.167301178,"lon":-170.2200012207},{"iata":"SMU","name":"Sheep Mountain Airport","city":"Sheep Mountain","state":"Alaska","lat":61.8120002747,"lon":-147.507003784},{"iata":"UMM","name":"Summit Airport","city":"Summit","state":"Alaska","lat":63.3315010071,"lon":-149.126998901},{"iata":"SVW","name":"Sparrevohn LRRS Airport","city":"Sparrevohn","state":"Alaska","lat":61.09740067,"lon":-155.5740051},{"iata":"SXQ","name":"Soldotna Airport","city":"Soldotna","state":"Alaska","lat":60.4757003784,"lon":-151.033996582},{"iata":"SYA","name":"Eareckson Air Station","city":"Shemya","state":"Alaska","lat":52.71229935,"lon":174.1139984},{"iata":"TAL","name":"Ralph M Calhoun Memorial Airport","city":"Tanana","state":"Alaska","lat":65.1744003296,"lon":-152.10899353},{"iata":"TNC","name":"Tin City Long Range Radar Station Airport","city":"Tin City","state":"Alaska","lat":65.56310272,"lon":-167.9219971},{"iata":"TOG","name":"Togiak Airport","city":"Togiak Village","state":"Alaska","lat":59.0527992249,"lon":-160.3970031738},{"iata":"TKJ","name":"Tok Airport","city":"Tok","state":"Alaska","lat":63.303333,"lon":-143.001111},{"iata":"TLJ","name":"Tatalina LRRS Airport","city":"Takotna","state":"Alaska","lat":62.8944015503,"lon":-155.977005005},{"iata":"ATK","name":"Atqasuk Edward Burnell Sr Memorial Airport","city":"Atqasuk","state":"Alaska","lat":70.467300415,"lon":-157.4360046387},{"iata":"AUK","name":"Alakanuk Airport","city":"Alakanuk","state":"Alaska","lat":62.6800422668,"lon":-164.659927368},{"iata":"UMT","name":"Umiat Airport","city":"Umiat","state":"Alaska","lat":69.37110138,"lon":-152.1360016},{"iata":"UNK","name":"Unalakleet Airport","city":"Unalakleet","state":"Alaska","lat":63.88840103,"lon":-160.798996},{"iata":"VAK","name":"Chevak Airport","city":"Chevak","state":"Alaska","lat":61.5409,"lon":-165.6005},{"iata":"KVC","name":"King Cove Airport","city":"King Cove","state":"Alaska","lat":55.1162986755,"lon":-162.2660064697},{"iata":"VDZ","name":"Valdez Pioneer Field","city":"Valdez","state":"Alaska","lat":61.13389969,"lon":-146.2480011},{"iata":"VEE","name":"Venetie Airport","city":"Venetie","state":"Alaska","lat":67.0086975098,"lon":-146.365997314},{"iata":"KVL","name":"Kivalina Airport","city":"Kivalina","state":"Alaska","lat":67.7361984253,"lon":-164.56300354},{"iata":"WBQ","name":"Beaver Airport","city":"Beaver","state":"Alaska","lat":66.362197876,"lon":-147.406997681},{"iata":"SWD","name":"Seward Airport","city":"Seward","state":"Alaska","lat":60.1268997192,"lon":-149.4190063477},{"iata":"WRG","name":"Wrangell Airport","city":"Wrangell","state":"Alaska","lat":56.48429871,"lon":-132.3699951},{"iata":"AIN","name":"Wainwright Airport","city":"Wainwright","state":"Alaska","lat":70.6380004883,"lon":-159.994995117},{"iata":"WTK","name":"Noatak Airport","city":"Noatak","state":"Alaska","lat":67.5661010742,"lon":-162.9750061035},{"iata":"IYS","name":"Wasilla Airport","city":"Wasilla","state":"Alaska","lat":61.5717010498,"lon":-149.5399932861},{"iata":"YAK","name":"Yakutat Airport","city":"Yakutat","state":"Alaska","lat":59.5032997131,"lon":-139.660003662},{"iata":"AKI","name":"Akiak Airport","city":"Akiak","state":"Alaska","lat":60.9029006958,"lon":-161.231002808},{"iata":"AET","name":"Allakaket Airport","city":"Allakaket","state":"Alaska","lat":66.5518035889,"lon":-152.621994019},{"iata":"NCN","name":"Chenega Bay Airport","city":"Chenega","state":"Alaska","lat":60.0773010254,"lon":-147.992004395},{"iata":"CLP","name":"Clarks Point Airport","city":"Clarks Point","state":"Alaska","lat":58.83369827,"lon":-158.529007},{"iata":"ELI","name":"Elim Airport","city":"Elim","state":"Alaska","lat":64.61470032,"lon":-162.2720032},{"iata":"KNK","name":"Kokhanok Airport","city":"Kokhanok","state":"Alaska","lat":59.4332008362,"lon":-154.804000854},{"iata":"KOT","name":"Kotlik Airport","city":"Kotlik","state":"Alaska","lat":63.0306015015,"lon":-163.533004761},{"iata":"KYU","name":"Koyukuk Airport","city":"Koyukuk","state":"Alaska","lat":64.8760986328,"lon":-157.727005005},{"iata":"KWT","name":"Kwethluk Airport","city":"Kwethluk","state":"Alaska","lat":60.7902984619,"lon":-161.444000244},{"iata":"ORV","name":"Robert (Bob) Curtis Memorial Airport","city":"Noorvik","state":"Alaska","lat":66.81790161,"lon":-161.0189972},{"iata":"SKK","name":"Shaktoolik Airport","city":"Shaktoolik","state":"Alaska","lat":64.37110138,"lon":-161.223999},{"iata":"WSN","name":"South Naknek Nr 2 Airport","city":"South Naknek","state":"Alaska","lat":58.7033996582,"lon":-157.007995605},{"iata":"FYU","name":"Fort Yukon Airport","city":"Fort Yukon","state":"Alaska","lat":66.5715026855,"lon":-145.25},{"iata":"BKH","name":"Barking Sands Airport","city":"Kekaha","state":"Hawaii","lat":22.0228004456,"lon":-159.785003662},{"iata":"HDH","name":"Dillingham Airfield","city":"Mokuleia","state":"Hawaii","lat":21.5795001984,"lon":-158.197006226},{"iata":"HHI","name":"Wheeler Army Airfield","city":"Wahiawa","state":"Hawaii","lat":21.48349953,"lon":-158.0399933},{"iata":"HNM","name":"Hana Airport","city":"Hana","state":"Hawaii","lat":20.7956008911,"lon":-156.0140075684},{"iata":"JHM","name":"Kapalua Airport","city":"Lahaina","state":"Hawaii","lat":20.9629001617,"lon":-156.6730041504},{"iata":"JRF","name":"Kalaeloa (John Rodgers Field) Airport","city":"Kapolei","state":"Hawaii","lat":21.30739975,"lon":-158.0700073},{"iata":"KOA","name":"Kona International At Keahole Airport","city":"Kailua/Kona","state":"Hawaii","lat":19.7388000488,"lon":-156.046005249},{"iata":"LIH","name":"Lihue Airport","city":"Lihue","state":"Hawaii","lat":21.9759998322,"lon":-159.3390045166},{"iata":"LUP","name":"Kalaupapa Airport","city":"Kalaupapa","state":"Hawaii","lat":21.21100044,"lon":-156.973999},{"iata":"MKK","name":"Molokai Airport","city":"Kaunakakai","state":"Hawaii","lat":21.1529006958,"lon":-157.095993042},{"iata":"MUE","name":"Waimea Kohala Airport","city":"Kamuela","state":"Hawaii","lat":20.0013008118,"lon":-155.6679992676},{"iata":"HNL","name":"Honolulu International Airport","city":"Honolulu","state":"Hawaii","lat":21.3187007904,"lon":-157.9219970703},{"iata":"LNY","name":"Lanai Airport","city":"Lanai City","state":"Hawaii","lat":20.7856006622,"lon":-156.9510040283},{"iata":"OGG","name":"Kahului Airport","city":"Kahului","state":"Hawaii","lat":20.8985996246,"lon":-156.4299926758},{"iata":"PAK","name":"Port Allen Airport","city":"Hanapepe","state":"Hawaii","lat":21.896900177,"lon":-159.602996826},{"iata":"BSF","name":"Bradshaw Army Airfield","city":"Camp Pohakuloa","state":"Hawaii","lat":19.760099411,"lon":-155.554000854},{"iata":"ITO","name":"Hilo International Airport","city":"Hilo","state":"Hawaii","lat":19.7213993073,"lon":-155.0480041504},{"iata":"UPP","name":"Upolu Airport","city":"Hawi","state":"Hawaii","lat":20.2653007507,"lon":-155.8600006104},{"iata":"PIZ","name":"Point Lay Lrrs Airport","city":"Point Lay","state":"Alaska","lat":69.73290253,"lon":-163.0050049},{"iata":"DTR","name":"Decatur Shores Airport","city":"Decatur","state":"Washington","lat":48.4998016357,"lon":-122.814002991}]}
